     2.00           OBSERVATION DATA    G(GPS)              RINEX VERSION / TYPE
goGPS-java                              22-Apr-22 21:42:50  PGM / RUN BY / DATE
                                                            MARKER NAME
                                                            MARKER NUMBER
                    Lotek Wireless Inc.                     OBSERVER / AGENCY
7                                                           REC # / TYPE / VERS
                                                            ANT # / TYPE
 -1701871.0000 -5580152.0000  2569378.0000                  APPROX POSITION XYZ
        0.0000        0.0000        0.0000                  ANTENNA: DELTA H / E / N
     2     0                                                WAVELENGTH FACT L1/2
     1    C1                                                # / TYPES OF OBSERV
  2022     4    18    22    43   21.0000000     UTC         TIME OF FIRST OBS
                                                            END OF HEADER
 22  4 19  1  0  4.0000000  0 08G02G05G13G15G18G23G25G29 12.39,0.0,0.00
  20123154.750
  22997134.250
  18446887.750
  23748239.750
  18452757.250
  18929608.250
  23441377.750
  22809117.750
 22  4 21 12  0 11.0000000  0 06G03G08G09G16G26G27 -81.000,0.0,0.00
  21220616.750
  23688132.750
  22526596.750
  21026013.750
  23478878.750
  22972349.750
 22  4 21 12 20  8.0000000  0 05G04G07G09G16G27 -0.26,0.0,0.00
  21129566.750
  23968713.250
  22390279.750
  22052988.250
  23013169.750
 22  4 21 12 40  9.0000000  0 04G03G07G08G09 -0.520,0.0,0.00
  22066363.250
  22842243.250
  22040089.750
  21018314.750
 22  4 21 13  0  5.0000000  0 06G04G07G08G09G16G27 -0.59,0.0,0.00
  19036222.750
  21474349.250
  20423518.250
  19474051.250
  21503711.250
  20658499.250
 22  4 21 13 20  5.0000000  0 06G04G07G08G09G16G27 -0.66,0.0,0.00
  23512818.250
  19559700.250
  18375201.250
  23484127.750
  20660938.750
  19060282.250
 22  4 21 13 40  7.0000000  0 06G04G07G08G09G16G27 -0.73,0.0,0.00
  22510543.250
  18008505.250
  22840887.750
  22000484.250
  20211690.250
  18013594.750
 22  4 21 14  0 10.0000000  0 07G03G04G07G08G09G14G30 -0.800,0.0,0.00
  18248455.250
  20227493.250
  21017927.250
  20056381.750
  19243828.750
  22290093.250
  22422903.750
 22  4 21 14 20  7.0000000  0 08G04G07G08G09G14G20G27G30 -0.88,0.0,0.00
  19278837.750
  19229634.750
  18657443.750
  23850654.750
  20296885.750
  22637933.750
  20767984.750
  20502951.750
 22  4 21 14 40 11.0000000  0 03G07G08G27 -0.95,0.0,0.00
  21038120.250
  21036510.250
  21158651.250
 22  4 21 15  0  6.0000000  0 07G04G07G09G14G17G28G30 -1.03,0.0,0.00
  23060314.750
  21029026.250
  20923603.250
  21923836.250
  23535094.750
  23098625.750
  21998427.250
 22  4 21 15 20  5.0000000  0 06G07G09G14G17G28G30 -1.11,0.0,0.00
  21770011.250
  22472207.750
  22658641.250
  23722363.750
  23722806.750
  22554949.250
 22  4 21 15 40  4.0000000  0 08G01G07G08G13G14G21G28G30 -1.18,0.0,0.00
  21497289.750
  18837362.750
  21252879.750
  22671397.750
  19733450.250
  21662995.750
  20695629.250
  19409418.750
 22  4 21 16  0  4.0000000  0 07G07G09G14G17G19G28G30 -1.26,0.0,0.00
  20243745.750
  22664670.750
  21125366.750
  21118327.750
  23353063.750
  21995137.750
  20572020.750
 22  4 21 16 20  5.0000000  0 07G07G13G14G17G19G28G30 -1.34,0.0,0.00
  18143978.250
  20751730.250
  18954265.250
  18505819.250
  20478644.250
  19739691.750
  18199103.250
 22  4 21 16 40  5.0000000  0 07G13G14G17G19G21G28G30 -1.42,0.0,0.00
  18046919.750
  22703882.750
  21922114.750
  23565058.750
  19518337.250
  23409346.750
  21811134.250
 22  4 21 17  0  5.0000000  0 06G01G07G17G19G21G30 -1.49,0.0,0.00
  18819359.250
  23529974.250
  22923044.750
  18187055.250
  21223754.750
  22977384.250
 22  4 21 17 20  6.0000000  0 08G01G06G07G13G17G19G28G30 -1.57,0.0,0.00
  22785267.750
  18276640.750
  21777520.250
  22577833.750
  20705505.750
  21549069.250
  22305022.750
  20913280.250
 22  4 21 17 40  5.0000000  0 06G06G07G13G17G19G28 -1.65,0.0,0.00
  23889122.750
  22710374.250
  22960555.250
  21179449.250
  21598009.250
  22628130.750
 22  4 21 18  0  5.0000000  0 07G06G07G13G17G19G28G30 -1.72,0.0,0.00
  23372937.750
  23604551.250
  23343253.250
  21615045.750
  21622169.750
  22789872.750
  22175516.750
 22  4 21 18 20 11.0000000  0 04G13G15G17G19 -1.800,0.0,0.00
  23118736.250
  19119665.250
  21399570.250
  21027761.750
 22  4 21 18 40  7.0000000  0 09G01G02G06G11G14G17G19G28G30 -1.62,0.0,0.00
  20270556.750
  19637459.750
  22800035.750
  20010654.750
  23408028.750
  22978612.750
  22279674.250
  23341672.750
  18062869.750
 22  4 21 19  0 10.0000000  0 09G02G06G11G13G15G17G19G24G30 -1.440,0.0,0.00
  20688323.750
  18175063.750
  21017725.250
  21035955.250
  22669916.250
  19215602.750
  18245511.750
  21084815.250
  20633882.250
 22  4 21 19 20  4.0000000  0 06G02G06G11G13G14G28 -1.52,0.0,0.00
  22707406.750
  20597335.750
  22957210.250
  18266857.750
  22362963.750
  21784897.250
 22  4 21 19 40  8.0000000  0 09G02G06G11G13G14G19G20G24G30 -1.61,0.0,0.00
  21246786.250
  19615500.750
  21383085.750
  23921374.250
  21812408.250
  20587646.250
  18263829.250
  21920540.750
  18138859.750
 22  4 21 20  0  5.0000000  0 06G06G12G14G17G19G28 -1.69,0.0,0.00
  22208276.250
  19878577.250
  18742657.750
  18871818.750
  23435753.250
  23525238.750
 22  4 21 20 20  4.0000000  0 07G02G06G12G17G19G24G28 -1.77,0.0,0.00
  22704145.750
  22152999.750
  18937444.250
  18984812.750
  23493748.750
  23726826.250
  23385585.250
 22  4 21 20 40  4.0000000  0 09G02G06G11G12G14G17G19G20G28 -1.85,0.0,0.00
  22779310.250
  22780509.250
  22462398.250
  18535647.750
  19757076.250
  19611355.250
  18105915.750
  18751677.250
  23873724.750
 22  4 21 21  0  5.0000000  0 07G02G06G11G12G17G19G28 -1.94,0.0,0.00
  18024063.750
  18553092.750
  23554686.750
  19182830.250
  21239624.750
  19743854.250
  19489710.750
 22  4 21 21 20  5.0000000  0 06G06G11G12G17G19G28 -2.02,0.0,0.00
  18936612.250
  23328535.750
  18414697.250
  21381934.750
  19916256.750
  19734699.250
 22  4 21 21 40  7.0000000  0 09G02G06G11G12G17G19G20G24G25 -2.10,0.0,0.00
  23259365.750
  18708610.750
  22576487.750
  23060078.750
  20851996.250
  19430129.750
  23225108.250
  19079248.250
  19905016.750
 22  4 21 22  0  6.0000000  0 09G02G05G06G12G17G19G20G24G28 -2.19,0.0,0.00
  22810547.250
  23437437.750
  18632389.750
  21954960.250
  20454521.250
  19084399.750
  22127750.750
  18813814.250
  19309191.750
 22  4 21 22 20  4.0000000  0 08G02G05G06G11G12G20G24G25 -2.27,0.0,0.00
  19035807.250
  18660350.250
  21169327.250
  18285472.250
  23606448.250
  23794552.750
  21197070.750
  19636513.750
 22  4 21 22 40  6.0000000  0 08G02G05G06G11G12G19G20G25 -2.35,0.0,0.00
  23759581.750
  22463377.250
  20162462.250
  23034420.750
  21894417.250
  20162209.750
  22097645.250
  23402963.750
 22  4 21 23  0  8.0000000  0 08G02G05G11G12G13G20G25G29 -2.43,0.0,0.00
  20181514.750
  18101695.250
  19516449.250
  18039730.750
  22813851.750
  18248739.750
  18982497.750
  21436902.750
 22  4 21 23 20  5.0000000  0 06G02G11G18G20G25G29 -2.52,0.0,0.00
  20320400.750
  19744427.250
  21634165.750
  18277557.250
  18438765.750
  20661017.750
 22  4 21 23 40 11.0000000  0 05G02G05G11G20G29 -2.600,0.0,0.00
  23026301.250
  19928778.250
  22563211.750
  21025462.750
  22450962.750
 22  4 22  0  0  7.0000000  0 07G02G05G11G18G20G25G29 -2.62,0.0,0.00
  21052929.750
  23741871.750
  20718420.750
  20847978.250
  19225862.250
  18370241.250
  19593661.750
 22  4 22  0 20  5.0000000  0 08G02G05G11G12G13G15G20G29 -2.63,0.0,0.00
  18774796.750
  21439350.250
  18579073.250
  23199167.750
  18015448.750
  23680863.250
  23221467.750
  22472217.750
 22  4 22  0 40  4.0000000  0 07G02G05G11G13G18G20G29 -2.65,0.0,0.00
  21007709.250
  23805271.750
  20954807.750
  19537651.750
  19527240.750
  19808229.250
  23932096.750
 22  4 22  1  0  4.0000000  0 06G02G12G13G18G23G25 -2.66,0.0,0.00
  18709441.750
  18075800.750
  22642713.250
  22641032.750
  22900346.250
  22168472.750
 22  4 22  1 20  7.0000000  0 09G02G05G10G13G15G18G23G25G29 -2.68,0.0,0.00
  21985548.750
  19371151.250
  22099208.750
  19468314.750
  18243098.750
  19349378.250
  19344780.250
  19735250.250
  23640356.250
 22  4 22  1 40  5.0000000  0 07G02G05G13G15G23G25G29 -2.70,0.0,0.00
  20176850.250
  23922167.250
  23351386.250
  21783850.250
  22795478.750
  18253868.750
  21371465.750
 22  4 22  2  0  7.0000000  0 08G10G13G15G18G23G25G26G29 -2.71,0.0,0.00
  20252485.750
  18969044.750
  23055745.750
  18145108.750
  23914401.750
  20347123.250
  20631228.750
  22810080.250
 22  4 22  2 20  4.0000000  0 06G10G18G23G24G25G29 -2.73,0.0,0.00
  20705915.750
  18817637.250
  18628799.750
  22071502.250
  21902925.750
  23895505.250
 22  4 22  2 40  7.0000000  0 07G05G10G13G15G18G23G29 -2.74,0.0,0.00
  19430766.750
  23415015.750
  23827830.250
  21308874.750
  21685091.750
  21613391.250
  21329522.250
 22  4 22  3  0  8.0000000  0 06G10G13G15G18G23G29 -2.76,0.0,0.00
  21100225.250
  22452742.250
  19691787.250
  19483560.250
  19581054.250
  19813467.250
 22  4 22  3 20  7.0000000  0 07G10G15G18G23G24G29G32 -2.78,0.0,0.00
  19294841.750
  18667328.750
  23767700.250
  18057114.250
  20212318.750
  18872135.250
  20783213.250
 22  4 22  3 40  7.0000000  0 06G10G22G23G27G29G32 -2.79,0.0,0.00
  23274423.250
  19744313.750
  22312742.750
  18792277.250
  23766263.750
  18201075.250
 22  4 22  4  0  4.0000000  0 06G10G18G23G24G27G32 -2.81,0.0,0.00
  20998359.750
  19729376.250
  20304347.250
  21614883.250
  22109666.750
  21383690.250
 22  4 22  4 20  5.0000000  0 06G10G18G22G27G29G32 -2.82,0.0,0.00
  19675827.750
  18630765.750
  20895108.250
  20487347.750
  22061819.250
  19586906.250
 22  4 22  4 40  9.0000000  0 06G10G18G22G27G29G32 -2.840,0.0,0.00
  21018287.250
  20297102.750
  21680195.250
  21664071.750
  18347096.250
  20549494.750
 22  4 22  5  0  4.0000000  0 06G10G22G23G24G27G32 -2.94,0.0,0.00
  21426504.750
  21621576.250
  21509269.250
  22433634.250
  22058127.750
  20695349.750
 22  4 22  5 20  4.0000000  0 06G10G18G22G27G31G32 -3.03,0.0,0.00
  20614076.750
  20879333.250
  20445891.750
  21383439.250
  23431337.750
  19742190.250
 22  4 22  5 40  4.0000000  0 06G10G18G22G27G31G32 -3.13,0.0,0.00
  18883670.250
  19806902.750
  18464814.750
  19928101.250
  20936619.250
  17988744.250
 22  4 22  6  0  5.0000000  0 07G10G18G21G22G27G31G32 -3.23,0.0,0.00
  22626314.250
  18295956.750
  19637269.250
  22063242.750
  18057977.250
  23902643.750
  21808559.750
 22  4 22  6 20  4.0000000  0 07G10G18G21G22G27G31G32 -3.33,0.0,0.00
  21265142.250
  23722710.750
  23653515.250
  20646372.750
  23141488.250
  21781516.250
  20596878.250
 22  4 22  6 40  4.0000000  0 06G08G10G21G22G23G32 -3.42,0.0,0.00
  22560350.750
  19872017.750
  21654759.250
  19257730.750
  21377968.750
  19391518.750
 22  4 22  7  0  4.0000000  0 07G08G10G21G22G27G31G32 -3.52,0.0,0.00
  21973501.750
  19075519.750
  20275245.250
  18491475.250
  21851613.750
  18213498.750
  18783761.250
 22  4 22  7 20  4.0000000  0 07G10G21G22G26G27G31G32 -3.62,0.0,0.00
  23798782.750
  18449294.750
  23233962.250
  20656735.750
  20926998.750
  22356939.750
  23660642.750
 22  4 22  7 40  4.0000000  0 07G01G10G21G22G26G31G32 -3.71,0.0,0.00
  23086229.750
  22202153.250
  22329347.750
  21610871.750
  18213309.750
  20268122.750
  22151261.250
 22  4 22  8  0  4.0000000  0 06G10G21G22G25G31G32 -3.81,0.0,0.00
  20236354.250
  19880326.250
  19544320.750
  21790598.250
  23894507.750
  20183054.250
 22  4 22  8 20  6.0000000  0 07G03G10G16G21G22G26G31 -3.91,0.0,0.00
  21437216.750
  19779106.250
  22142174.250
  18973941.250
  18892194.250
  19730935.750
  23114244.750
 22  4 22  8 40  4.0000000  0 07G01G04G10G22G25G31G32 -4.01,0.0,0.00
  18025572.750
  20743245.750
  19435544.250
  18252664.250
  20440838.750
  22515913.750
  19067726.250
 22  4 22  9  0  4.0000000  0 06G01G04G16G21G22G31 -4.10,0.0,0.00
  22534181.750
  18843425.750
  18285786.750
  22954330.250
  22990725.750
  21447669.750
 22  4 22  9 20 11.0000000  0 08G01G03G04G10G21G22G26G31 -4.200,0.0,0.00
  20439330.750
  20678283.250
  22170615.750
  23016568.250
  21025749.750
  20957228.250
  19540569.750
  19722070.250
 22  4 22  9 40  4.0000000  0 07G01G03G04G21G22G26G31 -0.09,0.0,0.00
  19338771.750
  18643192.750
  20356145.750
  20017392.750
  19775115.750
  23854681.750
  18923573.750
 22  4 22 10  0  6.0000000  0 06G03G04G16G22G26G31 -0.17,0.0,0.00
  21977662.750
  23813602.750
  22318744.250
  23882349.250
  21624030.250
  23453225.250
 22  4 22 10 20  4.0000000  0 07G01G03G04G16G21G26G32 -0.26,0.0,0.00
  21511269.250
  18946007.250
  20773793.750
  19161975.750
  22159333.750
  19077406.750
  22894242.750
 22  4 22 10 40  5.0000000  0 07G03G04G16G21G22G26G31 -0.34,0.0,0.00
  19619776.750
  21284282.250
  19714936.750
  23525360.750
  22740786.250
  20263634.750
  23113388.750
 22  4 22 11  0  5.0000000  0 07G01G03G04G07G16G22G27 -0.43,0.0,0.00
  21958189.250
  23949386.250
  19288431.750
  22227649.250
  23937117.250
  21497787.250
  21823745.750
 22  4 22 11 20  8.0000000  0 07G03G04G08G16G22G26G31 -0.51,0.0,0.00
  20522846.750
  21365213.250
  18655482.250
  20422693.250
  18371165.250
  22137841.250
  19287181.250
 22  4 22 11 40 11.0000000  0 05G04G08G09G22G27 -0.600,0.0,0.00
  18825707.250
  21852621.250
  20653079.250
  22646199.250
  21024599.250
 22  4 22 12  0  9.0000000  0 06G03G04G07G09G16G27 -0.61,0.0,0.00
  19551385.250
  19031077.750
  21924779.750
  20561475.750
  19348848.750
  21050138.250