     2.00           OBSERVATION DATA    G(GPS)              RINEX VERSION / TYPE
goGPS-java                              26-May-22 22:54:19  PGM / RUN BY / DATE
                                                            MARKER NAME
                                                            MARKER NUMBER
                    Lotek Wireless Inc.                     OBSERVER / AGENCY
7                                                           REC # / TYPE / VERS
                                                            ANT # / TYPE
 -1701871.0000 -5580152.0000  2569378.0000                  APPROX POSITION XYZ
        0.0000        0.0000        0.0000                  ANTENNA: DELTA H / E / N
     2     0                                                WAVELENGTH FACT L1/2
     1    C1                                                # / TYPES OF OBSERV
  2022     4    27     2    44   16.0000000     UTC         TIME OF FIRST OBS
                                                            END OF HEADER
 22  4 27 13  0  4.0000000  0 07G03G04G07G08G09G14G27 -2.19,0.0,0.00
  21876988.250
  18490783.250
  20419710.250
  19227055.750
  18343089.250
  22269239.750
  20017668.750
 22  4 29 12  0 11.0000000  0 08G03G04G07G08G09G16G27G30 -12.200,0.0,0.00
  21026807.750
  19382555.250
  22141728.250
  21465823.750
  20381368.250
  20813543.250
  21172110.750
  18154226.250
 22  4 29 12 20  4.0000000  0 07G03G04G07G08G09G16G27 -0.08,0.0,0.00
  19552145.250
  23149028.750
  19696968.250
  18734676.750
  23728686.750
  19361841.250
  18812063.250
 22  4 29 12 40  7.0000000  0 06G03G04G08G09G16G27 -0.16,0.0,0.00
  21373679.750
  18310706.250
  19360538.750
  18434717.750
  21230779.750
  19874911.750
 22  4 29 13  0  5.0000000  0 07G04G07G08G09G16G27G30 -0.24,0.0,0.00
  21762312.250
  23466451.250
  22275036.250
  21412073.250
  19284485.750
  23267851.750
  19078138.750
 22  4 29 13 20  7.0000000  0 07G04G07G08G09G16G27G30 -0.32,0.0,0.00
  20845478.250
  21899693.750
  20836916.250
  20019756.750
  18823373.250
  22323753.750
  23379453.250
 22  4 29 13 40 10.0000000  0 05G07G08G09G14G30 -0.400,0.0,0.00
  19678207.750
  18932475.750
  18142908.250
  20804029.750
  21026689.250
 22  4 29 14  0  4.0000000  0 07G04G07G08G09G14G28G30 -0.44,0.0,0.00
  20470792.750
  19813326.250
  19566009.250
  18787996.250
  20789666.250
  22131556.250
  21022240.250
 22  4 29 14 20  5.0000000  0 07G07G08G09G14G27G28G30 -0.49,0.0,0.00
  22743507.750
  23159791.250
  22381640.750
  23645858.750
  19920589.750
  18874238.250
  23796501.750
 22  4 29 14 40  4.0000000  0 07G01G07G09G14G17G21G28 -0.53,0.0,0.00
  20991980.750
  23875809.250
  18298329.250
  18763526.750
  19990274.250
  20526834.750
  19873664.250
 22  4 29 15  0  5.0000000  0 06G01G07G08G09G17G21 -0.57,0.0,0.00
  21210399.750
  18422869.750
  20489174.250
  19693849.750
  19985271.750
  21177267.750
 22  4 29 15 20  4.0000000  0 09G07G08G09G13G14G17G21G28G30 -0.62,0.0,0.00
  19418316.250
  22363387.250
  21556819.250
  22863904.250
  20306757.250
  20447563.750
  22332975.250
  21213251.750
  19851209.750
 22  4 29 15 40  4.0000000  0 07G07G09G13G14G17G28G30 -0.66,0.0,0.00
  19184242.250
  22150101.250
  22014243.750
  20026144.250
  19699530.250
  20844720.250
  19349652.750
 22  4 29 16  0  6.0000000  0 06G01G07G17G19G21G30 -0.70,0.0,0.00
  21184083.750
  19458788.750
  19479995.750
  21281957.750
  22805361.250
  19329249.750
 22  4 29 16 20  5.0000000  0 07G01G07G13G14G21G28G30 -0.75,0.0,0.00
  21339526.250
  19943057.250
  21541501.750
  20433890.750
  23520149.750
  21089414.750
  19500879.250
 22  4 29 16 40  7.0000000  0 07G06G13G14G17G19G28G30 -0.79,0.0,0.00
  18779581.750
  22830513.750
  21971792.750
  20910315.750
  21923421.750
  22540094.250
  21064115.250
 22  4 29 17  0  7.0000000  0 09G01G06G07G14G17G19G21G28G30 -0.83,0.0,0.00
  22301667.750
  23126113.250
  21447709.250
  21131200.750
  20078324.750
  20658411.750
  19405760.250
  21598694.750
  20376170.250
 22  4 29 17 20  9.0000000  0 08G06G07G13G14G15G17G19G30 -0.88,0.0,0.00
  18919017.250
  18627406.750
  18541856.250
  23737727.250
  20800797.750
  22800915.750
  22953253.250
  23265598.250
 22  4 29 17 40  4.0000000  0 08G01G06G07G14G17G19G28G30 -0.92,0.0,0.00
  23067564.250
  21419719.250
  22563105.250
  21031700.250
  20288364.750
  20043238.250
  21225721.250
  20958591.750
 22  4 29 18  0  5.0000000  0 06G02G06G11G13G17G19 -0.96,0.0,0.00
  19220810.250
  22301074.250
  19571571.750
  23867702.250
  22147843.750
  21548321.750
 22  4 29 18 20  4.0000000  0 07G02G06G11G13G19G24G30 -1.01,0.0,0.00
  23099227.250
  20466522.750
  23420462.750
  22991264.750
  20321688.250
  23462060.750
  22458053.750
 22  4 29 18 40  7.0000000  0 09G02G06G11G13G14G17G19G28G30 -1.05,0.0,0.00
  23298459.750
  21038483.250
  23554153.250
  18431126.250
  22627382.250
  22574451.250
  21439197.750
  22147278.750
  18181312.250
 22  4 29 19  0  4.0000000  0 09G02G06G11G12G14G19G24G28G30 -1.09,0.0,0.00
  18633279.750
  22817838.750
  18789848.250
  21362859.750
  18880601.750
  23658889.250
  19257546.750
  18104692.750
  20976616.250
 22  4 29 19 20  4.0000000  0 08G02G06G11G14G17G19G20G28 -1.13,0.0,0.00
  19291951.250
  17989536.750
  19320838.750
  20420353.750
  20573977.750
  19140217.250
  22190824.750
  19321668.750
 22  4 29 19 40  4.0000000  0 09G02G06G11G12G14G19G20G24G28 -1.18,0.0,0.00
  21134935.250
  20376486.250
  21016743.750
  23468707.750
  23091598.250
  21694042.250
  23738547.750
  22095726.250
  21656459.750
 22  4 29 20  0  4.0000000  0 08G02G06G11G12G14G20G24G28 -1.22,0.0,0.00
  19067671.750
  18861664.250
  18794939.250
  20975480.250
  21790693.250
  21214828.750
  20217675.250
  20020723.250
 22  4 29 20 20  4.0000000  0 08G02G06G11G12G19G20G24G28 -1.26,0.0,0.00
  20527277.750
  20857177.750
  20105942.750
  21882104.250
  22111568.750
  22090677.250
  21875055.750
  21864044.750
 22  4 29 20 40  4.0000000  0 06G02G05G11G12G20G28 -1.31,0.0,0.00
  20905722.750
  23901043.250
  20354671.750
  21617877.750
  21803722.750
  22594814.250
 22  4 29 21  0  4.0000000  0 07G02G05G11G12G19G20G28 -1.35,0.0,0.00
  21212255.750
  23246728.750
  20560954.250
  21240561.250
  23316367.250
  21416423.250
  23239763.250
 22  4 29 21 20  4.0000000  0 07G02G05G11G12G20G25G28 -1.39,0.0,0.00
  20337983.250
  21349032.250
  19622909.750
  19696013.750
  19875201.250
  22329298.250
  22705486.250
 22  4 29 21 40  4.0000000  0 07G02G05G11G12G20G24G25 -1.44,0.0,0.00
  20943403.250
  20932112.250
  20204095.750
  19699673.750
  19891908.750
  23049248.250
  21906277.750
 22  4 29 22  0  4.0000000  0 07G02G05G11G12G20G24G25 -1.48,0.0,0.00
  21388752.750
  20418341.250
  20664259.750
  19660201.250
  19868223.750
  23638160.750
  21365815.250
 22  4 29 22 20  4.0000000  0 06G02G05G11G12G20G29 -1.52,0.0,0.00
  22669161.250
  20858460.250
  21995324.750
  20609203.750
  20826890.250
  18273157.750
 22  4 29 22 40  4.0000000  0 06G02G05G11G12G20G29 -1.57,0.0,0.00
  18381494.250
  21889137.750
  23785015.250
  22159993.750
  22372543.250
  19066363.250
 22  4 29 23  0  4.0000000  0 06G05G12G15G20G25G29 -1.61,0.0,0.00
  22490520.750
  23267784.250
  20848036.750
  23453857.250
  23237594.750
  19236842.750
 22  4 29 23 20  4.0000000  0 08G05G12G13G15G18G20G25G29 -1.65,0.0,0.00
  23062426.250
  18313355.750
  20672469.750
  20659829.750
  20358850.250
  18448614.750
  23720794.750
  19194491.750
 22  4 29 23 40  6.0000000  0 08G02G05G12G13G15G18G25G29 -1.70,0.0,0.00
  21677982.250
  18325503.250
  19986856.750
  21195422.750
  20969086.750
  21025854.750
  18897893.750
  19682805.750
 22  4 30  0  0  4.0000000  0 08G05G12G13G15G18G23G25G29 -1.74,0.0,0.00
  20118813.750
  22124999.750
  22164234.750
  21685063.250
  22113358.750
  22888566.250
  20615599.250
  20597560.750
 22  4 30  0 20  4.0000000  0 08G02G05G13G15G18G23G25G29 -1.78,0.0,0.00
  19025404.250
  21958391.750
  23152291.750
  22381559.750
  23148849.750
  23548600.250
  22393555.750
  21501824.250
 22  4 30  0 40  4.0000000  0 08G05G13G15G18G23G25G26G29 -1.83,0.0,0.00
  23897769.250
  18283575.250
  23185098.750
  18214594.750
  18315450.250
  18289548.250
  20505218.250
  22511263.750
 22  4 30  1  0  9.0000000  0 06G12G15G18G23G25G29 -1.87,0.0,0.00
  22422074.250
  18068381.750
  19228310.750
  19124913.750
  20195120.250
  23586312.250
 22  4 30  1 20  4.0000000  0 07G10G13G15G18G23G26G29 -1.91,0.0,0.00
  22913975.750
  21349012.250
  19560812.750
  20698319.750
  20495650.250
  23119030.250
  19259739.250
 22  4 30  1 40  4.0000000  0 07G10G13G15G18G23G26G29 -1.96,0.0,0.00
  18490432.750
  23701654.750
  21576252.250
  22517024.250
  22315247.750
  19198717.250
  21431181.750
 22  4 30  2  0 11.0000000  0 04G10G15G23G29 -2.000,0.0,0.00
  22927308.250
  20572818.250
  21026193.250
  20561459.250
 22  4 30  2 20 10.0000000  0 05G10G15G18G24G29 -1.520,0.0,0.00
  22676903.750
  20979101.250
  21018135.250
  23853916.250
  21078824.250
 22  4 30  2 40  7.0000000  0 01G24 -1.67,0.0,0.00
  18980117.250
 22  4 30  3  0 11.0000000  0 06G13G16G18G22G27G32 -1.81,0.0,0.00
  23135236.250
  23143070.250
  18730727.750
  22877915.750
  21855675.750
  21284700.250
 22  4 30  3 20  6.0000000  0 07G10G15G16G18G23G27G32 -1.96,0.0,0.00
  22378483.250
  23120767.750
  19777414.750
  21051402.250
  21584265.250
  23615031.750
  22925544.250
 22  4 30  3 40  5.0000000  0 06G15G18G22G24G29G32 -2.11,0.0,0.00
  20288783.750
  23508930.750
  20078346.250
  19232842.250
  20665726.750
  18692900.250
 22  4 30  4  0  7.0000000  0 07G10G18G22G23G27G29G32 -2.25,0.0,0.00
  21218950.250
  20376611.750
  22072413.750
  20945156.250
  21899313.250
  18191010.250
  20854995.250
 22  4 30  4 20 11.0000000  0 05G18G22G23G24G32 -2.400,0.0,0.00
  21025481.750
  21818565.750
  21452704.750
  22352987.250
  20802070.750
 22  4 30  4 40  4.0000000  0 07G08G10G18G22G23G27G32 -2.44,0.0,0.00
  22197000.250
  19528360.250
  19595013.250
  19475767.750
  19770481.250
  20223309.750
  18680501.250
 22  4 30  5  0  7.0000000  0 08G08G10G18G22G23G24G31G32 -2.48,0.0,0.00
  18344948.250
  21861855.250
  22554558.750
  21518085.750
  22372471.750
  23654568.750
  18210856.250
  20954870.250
 22  4 30  5 20  5.0000000  0 06G08G10G18G22G27G31 -2.52,0.0,0.00
  19604573.750
  23180780.250
  18593350.250
  22656123.750
  18458638.250
  18755734.750
 22  4 30  5 40  4.0000000  0 08G08G18G21G22G23G27G31G32 -2.56,0.0,0.00
  23121129.250
  22832022.250
  23280245.250
  20034301.750
  21725441.250
  22348469.750
  21445305.250
  19916035.250
 22  4 30  6  0  6.0000000  0 09G08G10G18G21G22G23G27G31G32 -2.60,0.0,0.00
  19924438.250
  23295191.250
  20294613.750
  19321672.250
  22671766.750
  18683805.250
  19471551.750
  23356102.750
  22749495.750
 22  4 30  6 20  4.0000000  0 08G01G08G10G21G22G23G27G32 -2.64,0.0,0.00
  23107240.750
  23022074.250
  20197581.750
  21626883.750
  19599146.250
  21889424.250
  22820638.750
  19847614.750
 22  4 30  6 40  4.0000000  0 06G01G10G21G22G31G32 -2.68,0.0,0.00
  19378750.750
  23327098.750
  18193386.250
  22755983.250
  22091571.750
  23150345.750
 22  4 30  7  0  5.0000000  0 06G01G10G21G22G31G32 -2.72,0.0,0.00
  21472526.250
  20283734.250
  20610660.250
  19706296.750
  18520046.250
  20224055.250
 22  4 30  7 20  5.0000000  0 07G01G08G21G22G23G31G32 -2.76,0.0,0.00
  23549167.750
  20474856.250
  23021972.750
  22546027.750
  19750085.750
  20992039.250
  23169285.750
 22  4 30  7 40  4.0000000  0 07G01G03G04G21G22G31G32 -2.80,0.0,0.00
  19888166.250
  22398057.750
  22899037.250
  19687275.750
  19516156.750
  23763174.750
  20233153.250
 22  4 30  8  0  7.0000000  0 06G01G10G16G21G22G31 -2.84,0.0,0.00
  22105343.250
  23271462.750
  18843885.250
  22202844.250
  22204088.250
  20433700.250
 22  4 30  8 20  9.0000000  0 08G01G03G10G22G25G26G31G32 -2.88,0.0,0.00
  18948186.750
  20309774.750
  20768915.250
  19340169.250
  21639525.250
  18840064.250
  23702477.750
  20236726.750
 22  4 30  8 40  5.0000000  0 08G01G03G04G16G21G22G26G31 -2.92,0.0,0.00
  21928547.250
  22483348.250
  23872485.750
  23088534.250
  22463392.750
  22439463.750
  21247673.750
  21070994.750
 22  4 30  9  0  7.0000000  0 06G03G04G16G22G26G31 -2.96,0.0,0.00
  18524131.250
  20160953.750
  19030417.750
  19359633.250
  23604120.250
  18350540.250
 22  4 30  9 20 11.0000000  0 06G16G21G22G26G31G32 -3.000,0.0,0.00
  19776745.750
  21400693.750
  21027903.750
  18872280.250
  20431580.250
  22251245.250
 22  4 30  9 40  5.0000000  0 07G01G03G04G16G22G26G31 -2.98,0.0,0.00
  18994475.250
  22742227.250
  18586614.250
  23006818.250
  19088667.750
  22687737.250
  18914395.750
 22  4 30 10  0  4.0000000  0 06G03G04G16G22G26G31 -2.95,0.0,0.00
  18729830.750
  20464404.250
  18870679.750
  21662869.750
  19175464.750
  21887782.250
 22  4 30 10 20  5.0000000  0 06G03G04G09G16G26G31 -2.93,0.0,0.00
  21558221.250
  23022785.250
  19348443.750
  21585456.750
  22510125.750
  19530798.750
 22  4 30 10 40  4.0000000  0 07G01G03G04G07G09G16G26 -2.91,0.0,0.00
  23208897.750
  18906886.750
  19936849.250
  22870576.750
  22069899.250
  18838197.750
  20336155.750
 22  4 30 11  0  4.0000000  0 06G03G04G07G09G16G26 -2.89,0.0,0.00
  21636078.250
  22082103.750
  19012800.750
  17988611.750
  21493943.750
  23486470.250
 22  4 30 11 20  8.0000000  0 05G03G07G08G16G27 -2.86,0.0,0.00
  23612668.750
  20272055.750
  20197473.250
  23422239.750
  19448743.750
 22  4 30 11 40  9.0000000  0 07G03G04G07G08G09G16G27 -2.840,0.0,0.00
  19188760.250
  18162585.750
  21018279.250
  20604836.750
  19455306.250
  18975762.250
  20075595.750
 22  4 30 12  0  4.0000000  0 06G03G04G08G09G16G27 -2.88,0.0,0.00
  19400931.250
  23591609.750
  19580057.750
  18509493.750
  19190826.250
  19355457.750
 22  5  1  4  0 10.0000000  0 07G10G18G22G23G24G27G32 -4.960,0.0,0.00
  21453374.250
  20687697.250
  22199441.250
  21232042.750
  22148658.750
  22105994.250
  21017944.250
 22  5  1 16  0  4.0000000  0 07G01G07G13G14G17G28G30 -1.63,0.0,0.00
  21279699.750
  19690718.750
  21650543.750
  20330424.250
  19512620.250
  21034741.250
  19436445.750
 22  5  5  4  0  8.0000000  0 06G10G18G22G23G27G32 -13.07,0.0,0.00
  20343343.750
  19913319.250
  20684347.750
  20325751.250
  20948613.750
  19661656.250
 22  5  5 16  0  4.0000000  0 08G01G07G13G14G17G19G28G30 -14.70,0.0,0.00
  20120174.750
  18789087.750
  20255984.250
  19216404.750
  18225370.250
  19584889.750
  19855080.750
  18276025.250
 22  5  9  4  0  4.0000000  0 07G08G10G22G23G24G27G32 -26.13,0.0,0.00
  19332627.750
  22593728.250
  22601610.750
  22779804.250
  23771508.750
  23253617.250
  21753641.250
 22  5  9 16  0  4.0000000  0 07G01G07G13G17G19G28G30 -27.77,0.0,0.00
  18197478.750
  23096116.250
  18088833.250
  22159345.250
  23183868.250
  23801021.250
  22317357.250
 22  5 13  4  0  4.0000000  0 09G08G10G18G22G23G24G27G31G32 -39.20,0.0,0.00
  23571738.250
  21014244.250
  21489358.750
  20760275.250
  21409427.750
  22584458.250
  21826199.750
  23669649.250
  20099157.750
 22  5 13 16  0  4.0000000  0 08G01G13G14G15G17G19G28G30 -40.83,0.0,0.00
  21229030.250
  20867863.750
  20108247.250
  23360280.250
  19038117.750
  19709417.250
  20594813.750
  19294074.750
 22  5 17  4  0  5.0000000  0 07G08G10G18G22G27G31G32 -52.27,0.0,0.00
  23047892.750
  20585120.250
  21617974.250
  20140362.250
  21635156.750
  22626291.250
  19671754.750
 22  5 17 16  0  4.0000000  0 06G01G06G07G13G17G30 -53.90,0.0,0.00
  23662435.750
  23779420.250
  22943099.250
  23040036.750
  21290404.250
  21647289.250
 22  5 21  4  0  6.0000000  0 07G08G10G18G23G24G31G32 -65.33,0.0,0.00
  23587801.750
  21137414.250
  22779315.750
  21969621.750
  23742468.250
  22554948.750
  20295727.750
 22  5 21 16  0  4.0000000  0 09G01G06G07G13G14G17G19G28G30 -66.97,0.0,0.00
  20215790.750
  19326358.250
  19639454.250
  19325579.250
  18475921.750
  23628265.250
  23591458.750
  18756966.750
  18106759.250
 22  5 25  4  0 10.0000000  0 09G08G10G18G21G22G23G27G31G32 -78.400,0.0,0.00
  23536577.250
  21027205.250
  23298319.250
  23696384.250
  20403422.750
  22090344.750
  22742649.250
  21828115.250
  20310236.250
 22  5 25 16  0  5.0000000  0 07G01G13G14G17G19G28G30 -1.96,0.0,0.00
  19623204.250
  18439016.750
  23410397.750
  22771961.750
  22378906.250
  23546732.750
  23402258.250