     2.00           OBSERVATION DATA    G(GPS)              RINEX VERSION / TYPE
goGPS-java                              09-May-22 06:01:17  PGM / RUN BY / DATE
                                                            MARKER NAME
                                                            MARKER NUMBER
                    Lotek Wireless Inc.                     OBSERVER / AGENCY
7                                                           REC # / TYPE / VERS
                                                            ANT # / TYPE
 -1701871.0000 -5580152.0000  2569378.0000                  APPROX POSITION XYZ
        0.0000        0.0000        0.0000                  ANTENNA: DELTA H / E / N
     2     0                                                WAVELENGTH FACT L1/2
     1    C1                                                # / TYPES OF OBSERV
  2022     5     4    22    15   28.0000000     UTC         TIME OF FIRST OBS
                                                            END OF HEADER
 22  5  5  1  0  4.0000000  0 07G10G13G15G18G23G26G29 -0.29,0.0,0.00
  23579546.250
  22030468.750
  20230150.250
  21363674.250
  21169075.250
  23801000.250
  19935240.750
 22  5  6 12  0 10.0000000  0 05G07G08G09G16G30 -4.000,0.0,0.00
  23064303.250
  22013508.750
  21024022.250
  23189087.250
  24903061.750
 22  5  6 12 20  4.0000000  0 08G03G04G07G08G09G14G16G27 -4.04,0.0,0.00
  19665396.250
  22349574.750
  18351260.750
  23164116.250
  22254263.750
  20260778.750
  19546289.250
  23879145.250
 22  5  6 12 40  7.0000000  0 07G03G04G07G08G14G27G30 -4.09,0.0,0.00
  18248081.250
  20479423.250
  21912216.750
  20751862.750
  23449578.250
  21961847.250
  23490268.250
 22  5  6 13  0  5.0000000  0 06G04G07G08G14G27G30 -4.13,0.0,0.00
  19898102.250
  20616279.250
  19658793.250
  21866012.750
  21362547.750
  22064859.750
 22  5  6 13 20  6.0000000  0 09G04G07G08G09G14G17G27G28G30 -4.17,0.0,0.00
  23403014.250
  23266333.250
  22701411.250
  21937105.750
  18320573.250
  20741444.250
  18874306.250
  19736779.250
  18583089.750
 22  5  6 13 40  4.0000000  0 08G04G07G08G09G14G27G28G30 -4.21,0.0,0.00
  21577489.250
  20478587.250
  20482145.750
  19734253.750
  21413513.750
  23058718.250
  22712169.750
  21643468.750
 22  5  6 14  0  7.0000000  0 06G04G08G09G17G28G30 -4.26,0.0,0.00
  20766854.750
  19355091.750
  18612543.750
  21019623.250
  20699665.750
  19629286.750
 22  5  6 14 20  4.0000000  0 09G01G04G07G08G09G17G21G28G30 -4.30,0.0,0.00
  22551965.750
  22759051.250
  19570235.750
  21114401.250
  20370678.250
  21409625.750
  22245710.750
  21522224.750
  20376280.750
 22  5  6 14 40  4.0000000  0 09G07G08G09G14G17G19G21G28G30 -4.34,0.0,0.00
  23001852.250
  19424027.750
  18675485.750
  23892986.750
  18305764.250
  20803247.250
  19808553.250
  18861873.250
  23586118.750
 22  5  6 15  0  4.0000000  0 09G07G08G09G14G17G19G21G28G30 -4.39,0.0,0.00
  23699712.750
  20988887.250
  20233275.750
  18578260.250
  18481925.250
  20780448.750
  20683132.250
  19449177.750
  18034453.750
 22  5  6 15 20  4.0000000  0 09G01G08G13G14G17G19G21G28G30 -4.43,0.0,0.00
  22504898.250
  18670585.250
  23136077.250
  21375918.750
  20855245.750
  22875973.250
  23769797.250
  22161140.250
  20624214.750
 22  5  6 15 40  4.0000000  0 08G01G07G13G14G17G19G21G28 -4.47,0.0,0.00
  20755372.250
  19173057.250
  21114395.750
  19805893.250
  18971130.250
  20644656.250
  22594376.750
  20509541.250
 22  5  6 16  0  4.0000000  0 08G01G06G07G13G14G19G21G28 -4.51,0.0,0.00
  20387738.750
  22741576.250
  19121581.250
  20458454.750
  19478526.250
  19730012.750
  22764839.750
  20098775.250
 22  5  6 16 20  4.0000000  0 07G01G07G13G14G17G19G28 -4.56,0.0,0.00
  20929409.250
  19939220.250
  20695436.750
  19901070.250
  18823252.250
  19663560.250
  20428803.750
 22  5  6 16 40  5.0000000  0 06G01G13G14G17G19G28 -4.60,0.0,0.00
  20762740.250
  20209631.750
  19453346.250
  18438254.250
  18837800.750
  19871402.250
 22  5  6 17  0  4.0000000  0 09G01G06G07G13G14G15G17G19G28 -4.64,0.0,0.00
  19793429.750
  18902683.750
  19210779.250
  18911226.250
  18057570.250
  21105082.750
  23196416.750
  23172002.250
  18341291.250
 22  5  6 17 20  4.0000000  0 08G01G06G07G13G14G17G28G30 -4.69,0.0,0.00
  19076788.750
  22865077.250
  18624944.750
  23854603.250
  22794980.250
  22159424.250
  22912495.250
  22900861.750
 22  5  6 17 40  4.0000000  0 06G02G06G13G15G19G30 -4.73,0.0,0.00
  18884895.750
  22084688.750
  18066551.750
  19883194.750
  21590560.250
  23354069.750
 22  5  6 18  0  4.0000000  0 09G02G06G11G13G14G17G19G28G30 -4.77,0.0,0.00
  22824227.250
  20347193.750
  23098120.250
  23252940.750
  21618978.250
  21466921.750
  20441011.250
  21292226.250
  22809988.750
 22  5  6 18 20  4.0000000  0 09G02G06G11G13G14G17G19G28G30 -4.81,0.0,0.00
  22501886.250
  20428449.750
  22697017.250
  18144183.250
  22232737.250
  22269931.250
  21028621.750
  21627423.250
  17993029.750
 22  5  6 18 40  7.0000000  0 09G02G06G11G13G14G17G19G24G28 -4.86,0.0,0.00
  23498220.250
  21900114.250
  23583032.750
  20250101.250
  18141241.250
  18292319.750
  22890304.750
  18198812.750
  23221188.250
 22  5  6 19  0  4.0000000  0 08G02G11G12G14G17G19G24G28 -4.90,0.0,0.00
  23284034.250
  23234881.750
  19769598.250
  18784826.750
  18953087.250
  23448370.750
  18151137.750
  23534551.250
 22  5  6 19 20  4.0000000  0 09G02G06G11G12G14G19G20G24G28 -4.94,0.0,0.00
  23154269.750
  22625618.750
  22956851.250
  19298641.750
  19457784.250
  23974306.750
  19568381.250
  18203203.750
  23869109.250
 22  5  6 19 40  4.0000000  0 07G02G06G14G19G20G24G28 -4.99,0.0,0.00
  20613971.750
  20630465.750
  23651664.250
  21955268.750
  22508758.250
  21851628.250
  21737500.750
 22  5  6 20  0  4.0000000  0 09G02G05G06G11G17G19G20G24G28 -5.03,0.0,0.00
  21913767.250
  19425005.750
  22449787.250
  21428993.750
  19216997.750
  23640913.250
  23185453.750
  23350659.250
  23404847.250
 22  5  6 20 20  4.0000000  0 08G05G06G12G17G19G20G24G28 -5.07,0.0,0.00
  20122904.250
  18527446.750
  23910383.250
  21050008.750
  19505608.750
  18104523.250
  19151495.250
  19349403.250
 22  5  6 20 40  4.0000000  0 07G02G05G11G20G24G25G28 -5.11,0.0,0.00
  18551701.250
  20163320.750
  23867655.750
  18456113.250
  20382734.750
  21128695.750
  20723301.250
 22  5  6 21  0  4.0000000  0 08G02G05G11G12G20G24G25G28 -5.16,0.0,0.00
  22021063.750
  22600062.750
  21297878.750
  21097735.250
  21290478.750
  18037238.750
  23570327.250
  18540589.250
 22  5  6 21 20 10.0000000  0 04G06G11G19G20 -5.200,0.0,0.00
  18414189.250
  21567275.750
  18617340.250
  21024860.750
 22  5  6 21 40  4.0000000  0 08G02G05G11G19G20G24G25G29 -5.11,0.0,0.00
  18986601.250
  23635988.750
  18292989.750
  21366940.750
  23310265.750
  21287037.750
  18563083.250
  21106868.250
 22  5  6 22  0  4.0000000  0 07G02G05G11G12G20G25G29 -5.02,0.0,0.00
  20220189.250
  18096335.750
  19593469.750
  18075116.250
  18299657.750
  18963552.750
  21434751.250
 22  5  6 22 20  4.0000000  0 07G05G12G15G18G20G25G29 -4.93,0.0,0.00
  22683185.250
  23187661.250
  21387296.250
  20630995.250
  23397774.750
  23477057.250
  19706541.750
 22  5  6 22 40  4.0000000  0 09G02G11G12G13G15G18G20G25G29 -4.84,0.0,0.00
  22121172.250
  21705726.250
  19999666.250
  22954746.750
  23062935.750
  22552863.750
  20172164.750
  19704014.250
  21502606.250
 22  5  6 23  0  4.0000000  0 09G02G11G12G13G15G18G20G25G29 -4.76,0.0,0.00
  18994292.750
  18710746.750
  23119951.250
  18971426.250
  18887449.750
  18707192.250
  23230768.750
  22283827.250
  23484349.250
 22  5  6 23 20  4.0000000  0 09G02G05G11G12G15G18G20G25G29 -4.67,0.0,0.00
  22250152.750
  18902359.250
  22107654.750
  20752977.750
  21113530.250
  21305096.750
  20780917.250
  19445627.250
  19904032.250
 22  5  6 23 40  4.0000000  0 09G02G05G11G12G13G18G20G25G29 -4.58,0.0,0.00
  19619828.750
  22406139.750
  19621470.750
  18578379.750
  18094446.750
  18064153.750
  18508286.250
  22881277.250
  22496989.250
 22  5  7  0  0  4.0000000  0 09G02G05G13G15G18G20G23G25G29 -4.49,0.0,0.00
  22960812.250
  20007386.250
  20850852.250
  19952149.750
  20824586.250
  22240326.750
  21105587.250
  20428578.750
  19157455.250
 22  5  7  0 20  4.0000000  0 08G02G05G10G15G18G23G25G29 -4.40,0.0,0.00
  18360925.750
  21734645.250
  18409060.250
  20564904.250
  21652020.250
  21670893.750
  22113791.250
  19974870.750
 22  5  7  0 40  4.0000000  0 08G05G10G13G15G18G23G25G26 -4.31,0.0,0.00
  19086147.750
  20466224.750
  18495231.750
  22900047.750
  18067062.750
  23919968.250
  19430390.750
  20415594.750
 22  5  7  1  0  4.0000000  0 08G02G05G10G15G18G23G26G29 -4.22,0.0,0.00
  18041184.750
  22134245.250
  22280537.250
  19096006.250
  20168929.250
  19967843.750
  22701005.750
  18868628.250
 22  5  7  1 20  4.0000000  0 07G10G13G15G18G23G26G29 -4.13,0.0,0.00
  18140775.750
  23711509.250
  21436792.250
  22243918.750
  22080565.750
  19082903.250
  21358922.750
 22  5  7  1 40  4.0000000  0 08G10G16G18G23G24G25G26G29 -4.04,0.0,0.00
  23440162.250
  19476188.250
  21705728.750
  21657303.250
  18707838.750
  19670598.250
  18940151.250
  21382716.750
 22  5  7  2  0  4.0000000  0 08G10G13G15G18G23G26G29G32 -3.96,0.0,0.00
  20500093.250
  21907152.250
  19087631.250
  18881163.750
  18997292.750
  22562197.250
  19241820.750
  22443310.250
 22  5  7  2 20  4.0000000  0 08G10G13G15G18G23G24G29G32 -3.87,0.0,0.00
  23638306.250
  20022479.750
  23004288.750
  22117895.250
  22414733.750
  18540235.750
  23245727.750
  19032852.750
 22  5  7  2 40  4.0000000  0 08G10G15G18G23G24G27G29G32 -3.78,0.0,0.00
  20525654.250
  20735153.250
  19117785.250
  19575563.250
  21243653.750
  21988052.750
  21048167.250
  21354165.750
 22  5  7  3  0  4.0000000  0 07G10G15G18G23G24G27G29 -3.69,0.0,0.00
  23622135.250
  18722739.750
  22373422.750
  22937913.750
  18230574.750
  18692558.250
  19092954.750
 22  5  7  3 20  4.0000000  0 07G10G15G18G23G24G27G29 -3.60,0.0,0.00
  20712157.250
  22717289.750
  19699269.250
  20287124.250
  21310909.750
  21488928.750
  23129710.750
 22  5  7  3 40  4.0000000  0 09G10G15G18G22G23G24G27G29G32 -3.51,0.0,0.00
  18079134.250
  20993941.750
  23398081.250
  18699800.250
  23905573.250
  18811874.750
  18702300.750
  21430755.250
  23547069.750
 22  5  7  4  0  4.0000000  0 06G10G18G23G24G27G32 -3.42,0.0,0.00
  21412800.750
  21185637.750
  21499898.750
  22435733.250
  22034122.750
  20637784.750
 22  5  7  4 20  4.0000000  0 07G10G18G22G23G24G31G32 -3.33,0.0,0.00
  18852869.250
  19190720.250
  18655911.750
  19202156.250
  20322230.750
  21642103.750
  23950113.750
 22  5  7  4 40  4.0000000  0 07G10G18G23G24G27G31G32 -3.24,0.0,0.00
  22185742.750
  23192656.250
  22806999.750
  18245577.750
  23242613.250
  18213105.250
  21280495.250
 22  5  7  5  0  4.0000000  0 09G08G10G18G21G22G23G27G31G32 -3.16,0.0,0.00
  22193193.750
  19754434.250
  21511234.250
  22762898.250
  19177457.250
  20659869.250
  21201903.250
  21000866.250
  18940789.750
 22  5  7  5 20  4.0000000  0 08G08G18G21G22G23G27G31G32 -3.07,0.0,0.00
  19386760.750
  19403854.750
  19238024.250
  22218066.250
  18051255.750
  18750682.250
  23331137.750
  22193170.250
 22  5  7  5 40  4.0000000  0 09G08G10G18G21G22G23G27G31G32 -2.98,0.0,0.00
  22941321.750
  20230492.250
  23589427.250
  22012012.750
  19610876.250
  21737224.250
  22599198.750
  19996349.750
  19774577.750
 22  5  7  6  0  4.0000000  0 07G08G10G21G22G23G25G31 -2.89,0.0,0.00
  20650667.250
  23728458.750
  18929419.250
  23139887.250
  19546563.250
  20396388.750
  22836668.250
 22  5  7  6 20  4.0000000  0 06G10G21G22G26G31G32 -2.80,0.0,0.00
  21825420.750
  22466693.750
  21254404.250
  18643955.250
  20354274.250
  21719140.750
 22  5  7  6 40  4.0000000  0 08G01G10G21G22G25G26G31G32 -2.71,0.0,0.00
  20423245.750
  19600395.250
  19719806.250
  18999062.250
  21470757.250
  21558532.750
  23633022.250
  19580812.250
 22  5  7  7  0  4.0000000  0 07G10G21G22G25G26G31G32 -2.62,0.0,0.00
  23464228.750
  23097218.250
  22756597.750
  18993559.250
  18441705.750
  21096864.250
  23439799.250
 22  5  7  7 20  4.0000000  0 07G10G16G22G25G26G31G32 -2.53,0.0,0.00
  21504948.750
  23775655.250
  20596310.250
  22732844.250
  21393191.750
  18813861.750
  21371964.750
 22  5  7  7 40  4.0000000  0 07G01G03G04G21G22G31G32 -2.44,0.0,0.00
  23807487.750
  19561950.750
  20472911.250
  18028891.250
  18057358.250
  22316786.750
  18923190.750
 22  5  7  8  0  4.0000000  0 07G01G03G04G21G22G31G32 -2.36,0.0,0.00
  21478735.750
  22499925.750
  23717047.750
  21917676.250
  21941322.250
  20398239.750
  22901230.250
 22  5  7  8 20  4.0000000  0 07G01G03G04G21G22G31G32 -2.27,0.0,0.00
  19293266.750
  19455289.250
  20951351.750
  19887492.750
  19805855.750
  18571088.250
  20868656.750
 22  5  7  8 40  4.0000000  0 07G01G03G04G21G22G26G31 -2.18,0.0,0.00
  23171636.250
  22396022.250
  18110677.750
  23848922.750
  23593750.750
  21646559.750
  22743684.250
 22  5  7  9  0  4.0000000  0 08G01G03G04G16G21G22G26G31 -2.09,0.0,0.00
  21599806.750
  19870359.250
  21694167.250
  20210699.250
  22287977.750
  21829728.250
  19544782.250
  21400099.250
 22  5  7  9 20 11.0000000  0 08G01G03G09G16G21G22G26G31 -2.000,0.0,0.00
  23663235.750
  21025797.250
  19361945.250
  21238770.750
  24294411.750
  23644438.750
  21180077.250
  23633897.750
 22  5  7  9 40  4.0000000  0 07G01G03G04G07G16G26G31 -2.04,0.0,0.00
  23694368.250
  20272602.750
  21900082.250
  18906836.250
  20364828.750
  20925628.250
  23789690.250
 22  5  7 10  0  4.0000000  0 08G01G03G04G07G09G16G26G31 -2.07,0.0,0.00
  21890322.250
  23844844.250
  19133661.750
  22086560.750
  21357301.750
  23829270.250
  18994353.750
  22086286.750
 22  5  7 10 20  4.0000000  0 07G01G03G04G07G09G16G26 -2.11,0.0,0.00
  20026872.250
  21571827.750
  22353608.250
  19293425.250
  18374651.750
  21468496.250
  23168763.750
 22  5  7 10 40  4.0000000  0 07G03G04G07G08G09G16G27 -2.15,0.0,0.00
  19802352.250
  19944956.250
  22872053.250
  22991727.250
  21710590.750
  19635280.250
  22143490.250
 22  5  7 11  0  4.0000000  0 06G03G04G07G09G16G26 -2.19,0.0,0.00
  23598479.250
  23005263.750
  19906098.750
  18474489.250
  23393308.250
  19890093.250
 22  5  7 11 20  4.0000000  0 06G03G04G07G09G16G26 -2.22,0.0,0.00
  21616591.750
  20242389.250
  23052487.750
  21355725.750
  21398943.250
  18127154.750
 22  5  7 11 40  4.0000000  0 07G03G04G07G09G16G27G30 -2.26,0.0,0.00
  19868629.250
  23721711.750
  20358737.750
  18438820.250
  19663535.750
  19427295.750
  22310271.250
 22  5  7 12  0  4.0000000  0 07G03G04G07G08G09G16G27 -2.30,0.0,0.00
  19865079.750
  23019431.750
  19358201.250
  18270851.250
  23291532.750
  19697459.750
  18614413.750
 22  5  7 16  0  4.0000000  0 09G01G06G07G13G14G17G19G28G30 -2.75,0.0,0.00
  21800671.250
  17990299.750
  20595253.750
  21809126.750
  20879839.250
  19835128.750
  21023378.250
  21482149.250
  19943655.750