     2.00           OBSERVATION DATA    G(GPS)              RINEX VERSION / TYPE
goGPS-java                              06-May-22 22:41:02  PGM / RUN BY / DATE
                                                            MARKER NAME
                                                            MARKER NUMBER
                    Lotek Wireless Inc.                     OBSERVER / AGENCY
7                                                           REC # / TYPE / VERS
                                                            ANT # / TYPE
 -1701871.0000 -5580152.0000  2569378.0000                  APPROX POSITION XYZ
        0.0000        0.0000        0.0000                  ANTENNA: DELTA H / E / N
     2     0                                                WAVELENGTH FACT L1/2
     1    C1                                                # / TYPES OF OBSERV
  2022     5     2    22    42   48.0000000     UTC         TIME OF FIRST OBS
                                                            END OF HEADER
 22  5  3  1  0  6.0000000  0 09G02G10G13G15G18G23G25G26G29 -0.31,0.0,0.00
  21529232.250
  20485522.750
  18644676.750
  22984350.750
  18152987.250
  23977678.250
  19680168.750
  20515479.750
  22618488.750
 22  5  5 12  0 11.0000000  0 08G03G04G07G09G14G16G27G30 -8.400,0.0,0.00
  18670821.750
  22103658.250
  18586946.250
  22568817.250
  21025434.250
  18490481.250
  23734501.750
  20449545.250
 22  5  5 12 20  5.0000000  0 06G03G04G07G09G14G27 -8.32,0.0,0.00
  20150007.250
  22945907.750
  19044106.750
  22948346.750
  21036131.750
  18494021.250
 22  5  5 12 40  4.0000000  0 07G03G04G07G08G09G16G27 -8.24,0.0,0.00
  23094190.750
  19408285.750
  20971362.750
  19791251.750
  18936584.750
  23042869.250
  20899273.250
 22  5  5 13  0  4.0000000  0 07G03G04G07G08G09G14G28 -8.17,0.0,0.00
  22063030.250
  18070605.250
  18948570.250
  23930472.250
  23126210.750
  20248916.250
  21795480.250
 22  5  5 13 20  4.0000000  0 06G04G07G08G09G14G30 -8.09,0.0,0.00
  23465403.250
  23516173.750
  22856914.250
  22085326.750
  18603589.750
  18858489.250
 22  5  5 13 40  4.0000000  0 06G04G07G08G09G14G27 -8.01,0.0,0.00
  19631145.750
  18738041.250
  18614941.250
  23856348.750
  19689998.250
  21112439.250
 22  5  5 14  0  4.0000000  0 07G07G08G09G14G21G28G30 -7.93,0.0,0.00
  19811656.750
  20380532.250
  19631656.250
  20704630.750
  22405624.750
  21907720.250
  20843120.750
 22  5  5 14 20  4.0000000  0 07G07G08G09G14G21G28G30 -7.85,0.0,0.00
  23866559.250
  19246185.750
  18495647.250
  18753797.250
  20527418.750
  19843193.250
  18716168.750
 22  5  5 14 40  4.0000000  0 08G01G04G07G09G14G21G28G30 -7.78,0.0,0.00
  18426399.250
  19722939.250
  21710185.750
  23198648.750
  22601651.750
  18488163.250
  23585709.750
  22340659.250
 22  5  5 15  0  4.0000000  0 06G07G09G14G17G19G30 -7.70,0.0,0.00
  21749109.250
  18107971.750
  22631987.750
  22634390.250
  18978390.250
  22132905.750
 22  5  5 15 20  4.0000000  0 08G01G07G14G17G19G21G28G30 -7.62,0.0,0.00
  18093065.250
  22090571.750
  22912309.250
  22470930.250
  18553100.250
  19245144.750
  23713966.750
  22196774.750
 22  5  5 15 40  4.0000000  0 08G01G07G14G17G19G21G28G30 -7.54,0.0,0.00
  21192087.750
  19542240.250
  20218824.250
  19438833.750
  21183353.750
  22921250.250
  20938731.750
  19345053.750
 22  5  5 16  0  4.0000000  0 06G07G14G17G19G28G30 -7.46,0.0,0.00
  19782398.250
  20206670.250
  19213107.250
  20567117.250
  20844294.750
  19265566.750
 22  5  5 16 20  4.0000000  0 07G06G07G14G17G19G28G30 -7.38,0.0,0.00
  20458044.250
  23768317.250
  23821685.750
  22745456.750
  23672372.750
  18373603.750
  22928917.250
 22  5  5 16 40  4.0000000  0 09G01G06G07G13G14G17G19G28G30 -7.31,0.0,0.00
  19365011.250
  19944258.250
  18559868.250
  18878883.750
  18125775.250
  23085135.250
  23572248.250
  18568230.750
  23406209.250
 22  5  5 17  0  4.0000000  0 08G01G06G13G14G17G19G28G30 -7.23,0.0,0.00
  20559688.250
  19924653.750
  19745471.750
  18920561.250
  18024986.250
  18083775.250
  19234343.250
  18511212.750
 22  5  5 17 20  4.0000000  0 08G01G06G13G14G17G19G28G30 -7.15,0.0,0.00
  22676708.250
  20735247.750
  21527097.750
  20515355.250
  19831073.750
  19494255.250
  20670000.250
  20526472.250
 22  5  5 17 40  4.0000000  0 09G02G06G11G13G14G17G19G28G30 -7.07,0.0,0.00
  23845218.250
  20994314.250
  18175369.250
  22777666.250
  21500910.250
  21061839.250
  20378087.250
  21460566.750
  22020041.750
 22  5  5 18  0  4.0000000  0 09G02G06G11G13G14G17G19G28G30 -6.99,0.0,0.00
  23446278.750
  20896844.750
  23735178.750
  23624741.250
  22049956.750
  21851972.250
  20879526.750
  21776054.750
  23128371.750
 22  5  5 18 20  4.0000000  0 09G02G06G11G13G15G17G19G28G30 -6.92,0.0,0.00
  18622953.250
  22457354.250
  18839669.250
  20023444.750
  21522442.250
  18169395.750
  22965722.750
  23616878.750
  19813568.750
 22  5  5 18 40  4.0000000  0 09G02G06G11G13G17G19G20G28G30 -6.84,0.0,0.00
  19267943.250
  23564219.750
  19380156.250
  21800534.750
  19857881.750
  18491178.250
  22257432.250
  18874639.250
  21907007.250
 22  5  5 19  0  4.0000000  0 06G06G11G12G17G19G24 -6.76,0.0,0.00
  21741746.250
  22906984.250
  19467336.250
  18427271.750
  22943756.250
  23754248.250
 22  5  5 19 20  4.0000000  0 09G02G06G11G12G14G17G19G24G28 -6.68,0.0,0.00
  21925655.750
  21287237.250
  21760376.250
  18156720.250
  18070333.250
  18174551.250
  22625335.250
  22933295.750
  22550998.250
 22  5  5 19 40  4.0000000  0 09G02G06G11G12G14G17G19G24G28 -6.60,0.0,0.00
  18119814.750
  18029359.750
  23799387.750
  19890357.750
  21011637.250
  20940478.250
  19368120.250
  19318048.750
  19163651.750
 22  5  5 20  0  4.0000000  0 09G02G06G11G12G17G19G20G24G28 -6.53,0.0,0.00
  22290874.750
  22727112.750
  21832841.250
  23485925.250
  19525534.250
  23951546.250
  23695018.250
  23687109.750
  23708889.750
 22  5  5 20 20  4.0000000  0 09G02G06G11G12G17G19G20G24G28 -6.45,0.0,0.00
  20473904.750
  21396918.250
  19895714.750
  21014612.750
  23966762.250
  22421219.750
  21203372.250
  22070140.250
  22238774.750
 22  5  5 20 40  4.0000000  0 09G02G06G11G12G17G19G20G24G28 -6.37,0.0,0.00
  23147236.750
  18509456.750
  22480164.250
  23005274.250
  20788123.250
  19281613.750
  23187067.250
  18943293.250
  19253073.750
 22  5  5 21  0  4.0000000  0 09G02G05G06G11G12G17G19G20G28 -6.29,0.0,0.00
  20236912.750
  21020554.750
  21973258.750
  19518192.750
  19439274.250
  23934496.750
  22475956.750
  19627016.750
  22680024.750
 22  5  5 21 20  4.0000000  0 07G02G05G06G11G12G19G20 -6.21,0.0,0.00
  19147503.250
  18916077.750
  21205854.250
  18416461.250
  23770865.250
  21454380.250
  23972965.750
 22  5  5 21 40  4.0000000  0 07G02G05G06G11G20G25G29 -6.13,0.0,0.00
  18764449.250
  23590145.750
  21093023.250
  18059167.250
  23157022.250
  18529209.250
  21066689.250
 22  5  5 22  0  4.0000000  0 07G02G05G11G12G20G25G29 -6.06,0.0,0.00
  19946909.250
  23963701.250
  19301781.250
  23833871.750
  18062206.750
  18850531.750
  21349035.750
 22  5  5 22 20  4.0000000  0 07G02G05G11G12G20G25G29 -5.98,0.0,0.00
  21407091.250
  18789728.750
  20851258.750
  19185930.750
  19400472.250
  19601406.750
  21891019.250
 22  5  5 22 40  4.0000000  0 07G02G05G11G12G20G25G29 -5.90,0.0,0.00
  23148917.250
  20088153.250
  22705467.250
  20990670.750
  21173208.250
  20816441.750
  22716603.250
 22  5  5 23  0  4.0000000  0 07G02G05G11G12G20G25G29 -5.82,0.0,0.00
  23472683.250
  20169451.250
  23158365.250
  21535899.250
  21662026.750
  20810379.750
  22146263.250
 22  5  5 23 20  4.0000000  0 07G02G12G13G15G18G25G29 -5.74,0.0,0.00
  19100983.250
  23510746.750
  18437070.250
  18169621.750
  18290196.750
  22298575.250
  22919082.250
 22  5  5 23 40  4.0000000  0 09G02G05G11G12G15G20G23G25G29 -5.67,0.0,0.00
  21672551.250
  18425919.750
  21641695.250
  20528355.750
  19750894.750
  20480394.250
  20946208.750
  18912367.250
  18706904.250
 22  5  6  0  0  4.0000000  0 09G02G05G11G13G15G20G23G25G29 -5.59,0.0,0.00
  19414179.250
  22399305.250
  19525828.250
  23409411.250
  22575266.250
  18609024.750
  23736818.250
  22828338.250
  21740323.750
 22  5  6  0 20  4.0000000  0 08G02G05G13G15G18G23G25G29 -5.51,0.0,0.00
  22233129.250
  19542230.250
  19758649.250
  18591481.750
  19649070.250
  19710118.750
  19927136.250
  23957884.750
 22  5  6  0 40  6.0000000  0 09G02G10G12G13G15G18G23G25G29 -5.43,0.0,0.00
  21509643.250
  20817048.250
  21802326.750
  18709169.750
  23186101.750
  18353787.750
  18232168.750
  19528899.750
  22750411.250
 22  5  6  1  0  4.0000000  0 07G10G15G18G23G25G26G29 -5.35,0.0,0.00
  23848551.750
  20578156.750
  21685961.250
  21486012.750
  23770315.250
  18172086.750
  20317250.250
 22  5  6  1 20  4.0000000  0 08G05G10G13G15G18G23G26G29 -5.28,0.0,0.00
  21605962.250
  20829824.750
  20230780.250
  18023037.750
  18899368.750
  18719337.750
  21661613.250
  23911200.250
 22  5  6  1 40  4.0000000  0 06G13G15G18G23G24G29 -5.20,0.0,0.00
  18365083.250
  21849350.250
  22322125.250
  22243759.750
  19377146.250
  21871985.750
 22  5  6  2  0  4.0000000  0 07G10G13G15G16G18G23G29 -5.12,0.0,0.00
  22362444.750
  23573301.750
  20803542.250
  18640093.250
  20723056.250
  20802173.250
  20935587.750
 22  5  6  2 20  6.0000000  0 07G10G15G18G23G24G29G32 -5.04,0.0,0.00
  20893699.750
  20099216.750
  19353687.750
  19613942.250
  21832480.250
  20321735.250
  22402739.750
 22  5  6  2 40  6.0000000  0 06G15G18G22G24G29G32 -4.96,0.0,0.00
  21462040.750
  19990144.250
  23966078.750
  22172344.250
  21755357.250
  22367239.250
 22  5  6  3  0  5.0000000  0 06G15G18G22G24G29G32 -4.88,0.0,0.00
  20186905.250
  23974875.750
  21175044.250
  19880874.250
  20532357.750
  19670596.750
 22  5  6  3 20  4.0000000  0 07G10G16G18G23G24G27G32 -4.81,0.0,0.00
  22374980.750
  20343735.250
  21293890.250
  21894972.250
  22951355.750
  23203877.750
  22292508.750
 22  5  6  3 40  4.0000000  0 07G10G15G18G22G23G24G32 -4.73,0.0,0.00
  21570835.750
  18302751.250
  20801223.250
  22288824.250
  21345978.750
  22252039.250
  21103020.250
 22  5  6  4  0  8.0000000  0 05G10G18G23G24G32 -4.65,0.0,0.00
  20030923.250
  19687280.250
  20062184.250
  20973044.750
  19291766.250
 22  5  6  4 20  4.0000000  0 07G10G18G22G23G24G31G32 -4.57,0.0,0.00
  18054118.250
  18249864.250
  23911640.250
  18344637.250
  19412732.750
  20981754.750
  23164348.750
 22  5  6  4 40  3.0000000  0 06G10G18G23G24G31G32 -4.49,0.0,0.00
  22243939.250
  23088108.250
  22803566.750
  18168426.250
  18417106.750
  21330591.250
 22  5  6  5  0  4.0000000  0 08G08G10G18G21G22G23G27G32 -4.42,0.0,0.00
  22527438.250
  20091617.750
  21672481.250
  23233445.250
  19535129.250
  20932887.250
  21452901.250
  19253613.250
 22  5  6  5 20  6.0000000  0 07G10G18G22G23G27G31G32 -4.34,0.0,0.00
  18891085.250
  21265129.250
  18271222.250
  20026859.250
  20697783.750
  19519391.750
  18204883.750
 22  5  6  5 40  4.0000000  0 06G21G22G23G27G31G32 -4.26,0.0,0.00
  19121988.250
  22586505.250
  18648511.750
  19484399.750
  23107375.750
  22712424.250
 22  5  6  6  0  5.0000000  0 06G01G08G10G21G22G32 -4.18,0.0,0.00
  19388785.750
  19545942.250
  22659038.250
  23982617.250
  22072112.250
  22365293.750
 22  5  6  6 20  4.0000000  0 06G01G08G10G21G22G32 -4.10,0.0,0.00
  22828146.750
  18050929.750
  20962940.250
  21726140.750
  20401316.250
  20836345.250
 22  5  6  6 40  8.0000000  0 07G10G22G23G25G27G31G32 -4.03,0.0,0.00
  19136941.250
  18558816.750
  21474211.250
  21083275.750
  22456694.750
  23265041.250
  19114216.250
 22  5  6  7  0  7.0000000  0 05G10G22G25G31G32 -3.95,0.0,0.00
  23603111.250
  22937118.250
  19203247.750
  21317542.750
  23595688.250
 22  5  6  7 20  7.0000000  0 09G01G04G08G10G21G22G26G31G32 -3.87,0.0,0.00
  21658604.250
  18624034.250
  19464713.250
  22250376.750
  21532696.750
  21404053.750
  22363212.750
  19628763.250
  22155647.750
 22  5  6  7 40  8.0000000  0 07G10G21G22G25G26G31G32 -3.79,0.0,0.00
  21069367.750
  19924157.250
  19940278.750
  22107665.250
  20045089.750
  18180733.750
  20781486.750
 22  5  6  8  0  5.0000000  0 09G01G03G04G10G21G22G26G31G32 -3.71,0.0,0.00
  18092793.250
  19280724.750
  20435834.750
  20031520.750
  18486051.750
  18520681.250
  23844738.750
  22924763.250
  19454062.750
 22  5  6  8 20  4.0000000  0 06G16G21G22G26G31G32 -3.63,0.0,0.00
  23614602.250
  23253539.250
  23200918.750
  21863540.750
  21898911.250
  18238844.750
 22  5  6  8 40  4.0000000  0 06G16G21G22G26G31G32 -3.56,0.0,0.00
  21434265.250
  22200402.750
  21984892.250
  20122466.250
  21057152.750
  23130759.750
 22  5  6  9  0  4.0000000  0 06G03G04G16G22G26G31 -3.48,0.0,0.00
  18715406.750
  20529986.250
  19065675.750
  20515372.750
  18285664.750
  20005637.250
 22  5  6  9 20 10.0000000  0 09G01G03G04G09G16G21G22G26G31 -3.400,0.0,0.00
  21083357.250
  18630910.750
  20456257.250
  23013530.750
  18856766.750
  21727358.750
  21113032.750
  18675656.250
  21027098.750
 22  5  6  9 40  7.0000000  0 09G01G03G04G09G16G21G22G26G31 -3.47,0.0,0.00
  18189061.250
  20916836.250
  22600176.750
  19031359.250
  21022915.750
  18729017.250
  23959347.250
  21463615.250
  18266251.750
 22  5  6 10  0  5.0000000  0 07G03G04G07G09G16G22G26 -3.53,0.0,0.00
  19650486.250
  21026469.750
  23981564.750
  23293218.750
  19649023.750
  23128446.750
  20697151.750
 22  5  6 10 20  7.0000000  0 07G03G04G07G09G16G26G27 -3.60,0.0,0.00
  18164962.750
  19069166.750
  22004748.750
  21138239.750
  18074580.750
  19678070.750
  21465437.750
 22  5  6 10 40  8.0000000  0 07G03G04G08G16G22G26G27 -3.67,0.0,0.00
  22742893.250
  23032537.750
  20125986.250
  22586992.750
  20734009.250
  18664211.250
  19255876.250
 22  5  6 11  0  9.0000000  0 07G03G04G07G08G09G16G27 -3.73,0.0,0.00
  21323946.750
  20892679.250
  23802753.750
  23646227.250
  22431108.750
  21127719.250
  22930304.750
 22  5  6 11 20 11.0000000  0 04G03G04G07G09 -3.800,0.0,0.00
  21036610.250
  19827435.750
  22667940.750
  21024700.750
 22  5  6 11 40  6.0000000  0 06G03G07G09G16G26G30 -3.86,0.0,0.00
  23342397.750
  18049151.250
  22165932.750
  23139897.250
  19980005.750
  20024346.250
 22  5  6 12  0  7.0000000  0 05G04G07G09G16G27 -3.93,0.0,0.00
  23346316.750
  19759610.750
  23714681.750
  19881309.750
  18960921.250
 22  5  6 16  0  4.0000000  0 08G01G07G13G14G17G19G28G30 -4.71,0.0,0.00
  20716905.750
  19450583.750
  20789201.750
  19808847.250
  18786994.750
  20059875.250
  20429404.250
  18867477.250