     2.00           OBSERVATION DATA    G(GPS)              RINEX VERSION / TYPE
goGPS-java                              04-May-22 02:03:31  PGM / RUN BY / DATE
                                                            MARKER NAME
                                                            MARKER NUMBER
                    Lotek Wireless Inc.                     OBSERVER / AGENCY
7                                                           REC # / TYPE / VERS
                                                            ANT # / TYPE
 -1701871.0000 -5580152.0000  2569378.0000                  APPROX POSITION XYZ
        0.0000        0.0000        0.0000                  ANTENNA: DELTA H / E / N
     2     0                                                WAVELENGTH FACT L1/2
     1    C1                                                # / TYPES OF OBSERV
  2022     4    29    21    21   25.0000000     UTC         TIME OF FIRST OBS
                                                            END OF HEADER
 22  4 30  1  0  4.0000000  0 07G02G05G13G15G23G25G29 9.96,0.0,0.00
  19300066.250
  22861929.750
  22586276.750
  21178651.250
  22243620.750
  23214857.750
  20683367.750
 22  5  2 12  0 10.0000000  0 07G03G04G07G08G09G16G27 -117.600,0.0,0.00
  22299894.250
  20248417.750
  22909369.250
  22077905.250
  21024405.750
  22093905.750
  21965562.750
 22  5  2 12 20  5.0000000  0 06G03G04G07G09G16G27 -0.06,0.0,0.00
  23412535.250
  20588428.250
  22934824.250
  20883713.750
  23245789.250
  22183798.750
 22  5  2 12 40  5.0000000  0 06G04G07G08G09G27G30 -0.11,0.0,0.00
  19575589.750
  21485449.750
  20293033.750
  19402514.250
  21097353.750
  23154073.750
 22  5  2 13  0  4.0000000  0 07G04G07G08G09G14G27G30 -0.17,0.0,0.00
  22796604.250
  18120805.250
  22981122.750
  22147755.250
  19600017.250
  18282673.750
  19661414.750
 22  5  2 13 20  4.0000000  0 06G07G08G09G14G27G30 -0.22,0.0,0.00
  22512563.750
  21617444.750
  20823346.750
  23719868.250
  23403293.750
  23923583.250
 22  5  2 13 40  4.0000000  0 06G07G08G09G14G27G30 -0.28,0.0,0.00
  23523490.250
  23056781.250
  22284807.250
  18551752.750
  19300106.750
  18802133.250
 22  5  2 14  0  4.0000000  0 08G04G07G08G09G14G27G28G30 -0.34,0.0,0.00
  22884287.250
  21609115.750
  21744356.750
  20980628.250
  22531807.750
  18381285.250
  23804369.750
  22733766.750
 22  5  2 14 20  6.0000000  0 06G07G08G09G14G28G30 -0.39,0.0,0.00
  23902525.750
  18786541.750
  18021649.250
  18792309.250
  19948090.250
  18861272.750
 22  5  2 14 40  4.0000000  0 08G07G08G09G14G17G21G28G30 -0.45,0.0,0.00
  18943530.250
  20660526.750
  19889376.250
  19830074.250
  20702086.250
  21644974.250
  20875680.750
  19702802.250
 22  5  2 15  0  4.0000000  0 08G07G08G09G14G17G21G28G30 -0.51,0.0,0.00
  20866139.750
  23461677.250
  22682099.750
  21758533.750
  22086442.750
  23706536.750
  22702969.250
  21399647.250
 22  5  2 15 20  5.0000000  0 08G01G07G09G14G17G21G28G30 -0.56,0.0,0.00
  18612115.250
  22389676.250
  19061342.250
  23256956.250
  23089515.750
  19421122.750
  18113918.250
  22665568.750
 22  5  2 15 40  6.0000000  0 09G07G09G13G14G17G19G21G28G30 -0.62,0.0,0.00
  23658952.750
  21105927.750
  20110248.750
  18439697.250
  23859340.250
  19807503.250
  20910144.750
  19208399.250
  23647938.750
 22  5  2 16  0  4.0000000  0 09G01G07G13G14G17G19G21G28G30 -0.67,0.0,0.00
  19240818.250
  23715580.750
  19552133.750
  18311900.250
  23437647.250
  19031442.750
  21197658.250
  18999777.250
  23396004.250
 22  5  2 16 20  4.0000000  0 08G01G07G13G14G19G21G28G30 -0.73,0.0,0.00
  20105096.250
  18893002.250
  20124339.750
  19187445.750
  19336993.250
  22590295.750
  19791211.250
  18253041.750
 22  5  2 16 40  5.0000000  0 06G01G06G07G14G28G30 -0.79,0.0,0.00
  20826308.250
  22075368.750
  19881598.750
  19758526.750
  20267485.750
  18923948.750
 22  5  2 17  0  5.0000000  0 07G07G13G14G17G19G28G30 -0.84,0.0,0.00
  19988462.750
  20102907.750
  19336103.750
  18343371.250
  18661217.750
  19731740.750
  18731846.250
 22  5  2 17 20  4.0000000  0 06G06G13G15G17G19G30 -0.90,0.0,0.00
  20875603.250
  21068113.250
  23221199.750
  19358473.750
  19261479.250
  19931903.750
 22  5  2 17 40  6.0000000  0 09G06G07G13G14G15G17G19G28G30 -0.96,0.0,0.00
  23232147.750
  19262748.750
  18416727.250
  23303762.750
  20381996.250
  22707823.750
  22234400.250
  23387251.750
  23514800.750
 22  5  2 18  0  4.0000000  0 07G06G13G14G17G19G28G30 -1.01,0.0,0.00
  20468317.750
  22627597.250
  21235877.250
  20885851.750
  20089999.750
  21110073.750
  21980059.250
 22  5  2 18 20  7.0000000  0 09G02G06G11G13G14G17G19G28G30 -1.07,0.0,0.00
  23937913.750
  21526479.750
  18217074.250
  18600068.750
  22905736.750
  22784467.750
  21724944.250
  22530969.250
  18224672.750
 22  5  2 18 40  5.0000000  0 07G02G06G11G14G17G19G28 -1.12,0.0,0.00
  22972606.250
  20980395.750
  23161804.250
  22870489.250
  22924861.250
  21663884.750
  22211526.250
 22  5  2 19  0  4.0000000  0 07G02G06G11G14G17G19G28 -1.18,0.0,0.00
  18250103.750
  22740330.750
  18322844.250
  19045550.250
  19196027.250
  23787063.250
  18072530.250
 22  5  2 19 20  4.0000000  0 09G02G06G11G12G14G17G19G24G28 -1.24,0.0,0.00
  23846444.750
  22872761.250
  23779654.750
  20297032.250
  19496257.750
  19644223.250
  18147013.750
  18743435.250
  18190070.250
 22  5  2 19 40  4.0000000  0 09G02G06G11G12G14G17G19G24G28 -1.29,0.0,0.00
  19967520.750
  19544676.750
  19749112.750
  22044550.750
  22404420.250
  22442375.250
  20896323.250
  21044834.250
  20760527.250
 22  5  2 20  0  4.0000000  0 09G02G06G11G12G17G19G20G24G28 -1.35,0.0,0.00
  22922640.250
  23043563.250
  22553492.750
  18497077.250
  19912128.250
  18352176.750
  18721667.750
  18198903.250
  18120105.250
 22  5  2 20 20  4.0000000  0 07G02G06G11G12G19G20G28 -1.41,0.0,0.00
  19760743.750
  20396043.250
  19255000.750
  20718899.250
  21548913.750
  20916580.250
  21316353.250
 22  5  2 20 40  6.0000000  0 08G02G05G06G12G17G19G20G28 -1.46,0.0,0.00
  23100671.250
  19525290.750
  18209686.250
  23384946.250
  20653381.250
  19137615.750
  23567146.750
  19002683.250
 22  5  2 21  0  8.0000000  0 07G02G06G11G12G17G19G28 -1.52,0.0,0.00
  22996406.750
  18520143.750
  22302912.250
  22599347.250
  20656532.250
  19184658.750
  19236641.750
 22  5  2 21 20  4.0000000  0 07G02G05G12G24G25G28G29 -1.57,0.0,0.00
  23855890.250
  18244039.250
  22828606.250
  19902718.250
  19218389.250
  20442327.250
  21519143.750
 22  5  2 21 40  6.0000000  0 06G02G05G11G12G25G29 -1.63,0.0,0.00
  20658756.250
  20049319.750
  19928759.750
  19098097.250
  21006711.250
  23489018.250
 22  5  2 22  0  8.0000000  0 08G02G05G11G12G20G24G25G29 -1.69,0.0,0.00
  23044100.750
  21540231.250
  22352716.250
  21091652.750
  21310043.750
  19368645.750
  22457997.250
  18998233.250
 22  5  2 22 20  6.0000000  0 08G02G05G11G12G18G20G25G29 -1.74,0.0,0.00
  18090259.250
  21837907.250
  23465865.250
  21910962.250
  20016308.750
  22130524.750
  22695105.250
  19132516.750
 22  5  2 22 40  6.0000000  0 06G02G05G11G12G13G20 -1.80,0.0,0.00
  21205199.250
  18393482.250
  20683237.250
  18984734.750
  22758070.250
  19186303.750
 22  5  2 23  0  6.0000000  0 07G02G11G12G13G20G25G29 -1.86,0.0,0.00
  21637793.750
  21234910.250
  19542674.250
  22313917.250
  19702655.750
  19155301.250
  20851073.750
 22  5  2 23 20  8.0000000  0 09G02G05G11G12G15G18G20G25G29 -1.91,0.0,0.00
  21218375.750
  23872435.750
  20949211.750
  19398038.750
  20912075.750
  20815538.750
  19492162.750
  18482809.750
  19550860.750
 22  5  2 23 40  4.0000000  0 08G02G05G11G12G15G18G20G25 -1.97,0.0,0.00
  22760404.250
  19433222.750
  22632401.750
  21328582.250
  21436189.750
  21711338.250
  21336825.250
  19960158.250
 22  5  3  0  0  9.0000000  0 08G02G11G12G13G15G18G23G25 -2.02,0.0,0.00
  23316504.250
  23332870.750
  22351537.750
  21675932.750
  21025365.750
  21659630.750
  22205265.250
  20613509.750
 22  5  3  0 20  4.0000000  0 09G02G05G13G15G18G20G23G25G29 -2.08,0.0,0.00
  21548061.750
  18658293.250
  19349678.250
  18386475.750
  19316124.750
  20882517.750
  19530832.250
  19065881.750
  23627365.250
 22  5  3  0 40  4.0000000  0 09G05G10G13G15G18G23G25G26G29 -2.14,0.0,0.00
  23001600.250
  19430422.750
  22934292.250
  21631357.250
  22749965.750
  22721442.750
  23368904.750
  19037290.250
  21077664.750
 22  5  3  1  0  4.0000000  0 07G02G05G13G15G18G25G29 -2.19,0.0,0.00
  22267037.250
  20083606.750
  19382753.750
  23724103.750
  18890920.250
  20416200.750
  23356748.250
 22  5  3  1 20  4.0000000  0 08G05G10G13G15G18G23G26G29 -2.25,0.0,0.00
  18482136.250
  18403714.250
  23302595.750
  21301811.250
  22339101.750
  22130600.750
  18913102.750
  21100519.250
 22  5  3  1 40  5.0000000  0 09G10G13G15G18G23G24G25G26G29 -2.31,0.0,0.00
  20785754.250
  20520802.250
  18196564.250
  18931394.750
  18778062.250
  22137146.750
  22235111.750
  21825153.250
  18138925.750
 22  5  3  2  0  5.0000000  0 06G10G13G15G18G23G29 -2.36,0.0,0.00
  22894737.750
  23530375.250
  20920930.750
  21188381.750
  21162913.750
  20984225.750
 22  5  3  2 20  6.0000000  0 06G10G15G16G18G29G32 -2.42,0.0,0.00
  19801024.250
  18539908.250
  22209515.250
  18203488.750
  18703614.750
  21663082.250
 22  5  3  2 40  5.0000000  0 09G10G15G16G18G23G24G27G29G32 -2.47,0.0,0.00
  23210918.250
  22742928.250
  20003203.250
  21710503.250
  22039138.250
  18079859.250
  19060473.250
  22989348.250
  18519415.250
 22  5  3  3  0  6.0000000  0 09G10G15G16G18G22G23G24G29G32 -2.53,0.0,0.00
  19726140.750
  20113455.250
  22943343.250
  18342890.750
  22028888.250
  18827301.250
  20419453.250
  20427729.250
  20469993.750
 22  5  3  3 20  4.0000000  0 08G10G15G18G23G24G27G29G32 -2.59,0.0,0.00
  23408867.750
  18692434.250
  22194714.750
  22774642.250
  18009489.750
  18423781.250
  19060401.750
  23631785.750
 22  5  3  3 40  4.0000000  0 07G10G18G22G23G27G29G32 -2.64,0.0,0.00
  20813042.750
  19849568.750
  21882260.750
  20437572.250
  21556657.750
  23409936.250
  20587997.750
 22  5  3  4  0  4.0000000  0 07G10G18G22G23G24G27G32 -2.70,0.0,0.00
  23741976.250
  23132800.750
  18279029.750
  23622458.750
  18521650.750
  18362354.750
  23170961.750
 22  5  3  4 20  7.0000000  0 08G08G10G18G22G23G24G27G32 -2.76,0.0,0.00
  18896505.750
  22110182.250
  21972477.250
  22198455.250
  22249383.750
  23206231.750
  22751997.750
  21311783.250
 22  5  3  4 40  8.0000000  0 06G08G10G18G23G27G32 -2.81,0.0,0.00
  22526428.750
  19985786.250
  20432412.250
  20389408.250
  20803652.250
  19083493.750
 22  5  3  5  0  4.0000000  0 08G08G10G18G22G23G27G31G32 -2.87,0.0,0.00
  19423821.250
  22988817.750
  18121897.250
  22519490.250
  23666068.750
  18116592.750
  18871302.250
  22096910.750
 22  5  3  5 20  4.0000000  0 07G10G18G22G23G27G31G32 -2.92,0.0,0.00
  20467151.750
  22356217.250
  19877756.750
  21431276.750
  21995501.250
  21569691.250
  19679271.750
 22  5  3  5 40  8.0000000  0 08G08G10G21G22G23G27G31G32 -2.98,0.0,0.00
  20856148.250
  18295391.250
  20559336.250
  23663908.250
  19559081.250
  20284614.750
  18640623.750
  23671990.750
 22  5  3  6  0  4.0000000  0 07G08G10G21G23G27G31G32 -3.04,0.0,0.00
  18126598.750
  21378400.250
  23041283.250
  22947410.250
  23830040.750
  21016484.250
  20954968.750
 22  5  3  6 20  4.0000000  0 06G08G10G22G27G31G32 -3.09,0.0,0.00
  21958372.750
  19005413.750
  18423148.250
  21873783.250
  17999727.250
  18769546.250
 22  5  3  6 40  4.0000000  0 08G01G10G22G23G26G27G31G32 -3.15,0.0,0.00
  22928012.750
  21411810.250
  20839689.750
  23585340.250
  18081898.750
  18603940.250
  19843024.750
  21318817.250
 22  5  3  7  0  4.0000000  0 06G01G10G21G22G31G32 -3.21,0.0,0.00
  21336506.250
  20665103.750
  20685458.750
  20050976.250
  18621502.250
  20642653.750
 22  5  3  7 20  5.0000000  0 07G01G04G10G21G22G31G32 -3.26,0.0,0.00
  18408640.250
  21449808.750
  18547690.250
  18088801.250
  23806504.250
  22112042.750
  18500774.250
 22  5  3  7 40  5.0000000  0 06G01G10G21G22G31G32 -3.32,0.0,0.00
  20907108.250
  21800946.750
  20897210.250
  20844148.750
  19060203.250
  21624971.750
 22  5  3  8  0  4.0000000  0 07G01G10G21G22G26G31G32 -3.37,0.0,0.00
  19596328.750
  21173629.750
  19855304.750
  19895327.750
  19700683.250
  18187451.250
  20765750.750
 22  5  3  8 20  4.0000000  0 08G01G03G04G16G22G26G31G32 -3.43,0.0,0.00
  23040443.250
  23919343.750
  19198570.750
  18564545.750
  23525075.250
  22589755.750
  22035227.250
  18494262.250
 22  5  3  8 40  7.0000000  0 09G01G03G04G10G16G21G22G26G31 -3.49,0.0,0.00
  20252882.750
  20251541.250
  21797383.250
  22953267.250
  20802805.250
  20868083.750
  20759828.250
  19207136.250
  19597036.750
 22  5  3  9  0  4.0000000  0 08G01G03G04G16G21G22G26G32 -3.54,0.0,0.00
  23802997.750
  22858033.250
  18606464.250
  23298110.250
  18493198.750
  18202430.250
  22179930.250
  19388075.750
 22  5  3  9 20 10.0000000  0 07G01G04G16G21G22G26G31 -3.600,0.0,0.00
  21179600.250
  21116266.250
  19596012.750
  21864714.250
  21368301.250
  19042313.750
  21024596.750
 22  5  3  9 40  6.0000000  0 07G03G04G16G21G22G26G31 -1.51,0.0,0.00
  22854950.750
  18648527.750
  23045196.750
  20261911.750
  19581504.250
  23102843.250
  19649283.250
 22  5  3 10  0 10.0000000  0 07G01G03G04G09G16G26G27 -3.040,0.0,0.00
  22985243.250
  19435322.250
  21017800.250
  23392652.750
  19506078.250
  20190093.750
  23661841.250
 22  5  3 10 20  7.0000000  0 09G01G03G04G08G09G16G21G26G27 -0.15,0.0,0.00
  21382571.750
  23245481.250
  18460088.750
  21912837.250
  20660681.750
  23212386.250
  21702935.250
  18493009.250
  20971869.250
 22  5  3 10 40  9.0000000  0 08G03G04G07G08G09G16G26G27 -0.29,0.0,0.00
  20220988.750
  20900509.750
  23832082.250
  18165955.250
  22886559.250
  20104575.750
  21908642.250
  23245362.250
 22  5  3 11  0  4.0000000  0 07G03G04G07G08G09G16G27 -0.44,0.0,0.00
  22970002.750
  22992014.250
  19918454.750
  19975234.250
  18723484.250
  22795062.250
  19159443.750
 22  5  3 11 20  4.0000000  0 07G03G07G08G09G16G26G27 -0.58,0.0,0.00
  20475670.750
  22634604.250
  22361742.750
  21166803.750
  20267565.750
  22826466.250
  21731632.750
 22  5  3 11 40  4.0000000  0 07G03G04G07G08G09G16G27 -0.73,0.0,0.00
  18936885.250
  23422574.750
  20212766.250
  19601085.750
  18483104.250
  18721058.250
  19244335.250
 22  5  3 12  0  5.0000000  0 06G04G07G08G09G16G27 -0.87,0.0,0.00
  20918130.250
  23509050.250
  22597713.250
  21565537.250
  22991368.750
  22598009.750