     2.00           OBSERVATION DATA    G(GPS)              RINEX VERSION / TYPE
goGPS-java                              22-Apr-22 21:43:55  PGM / RUN BY / DATE
                                                            MARKER NAME
                                                            MARKER NUMBER
                    Lotek Wireless Inc.                     OBSERVER / AGENCY
7                                                           REC # / TYPE / VERS
                                                            ANT # / TYPE
 -1701871.0000 -5580152.0000  2569378.0000                  APPROX POSITION XYZ
        0.0000        0.0000        0.0000                  ANTENNA: DELTA H / E / N
     2     0                                                WAVELENGTH FACT L1/2
     1    C1                                                # / TYPES OF OBSERV
  2022     4    17     0    29   54.0000000     UTC         TIME OF FIRST OBS
                                                            END OF HEADER
 22  4 17 13  0  8.0000000  0 05G03G04G08G16G27 -1.37,0.0,0.00
  23919805.750
  21867911.250
  23668805.750
  23715083.750
  23582234.250
 22  4 18 13  0 10.0000000  0 05G04G07G09G16G27 -4.000,0.0,0.00
  21027276.750
  23637833.750
  21743119.250
  23032662.250
  22717068.750
 22  4 20 12  0  5.0000000  0 06G03G04G07G08G09G16 -10.71,0.0,0.00
  23906491.750
  23705470.250
  20618093.250
  20544537.750
  19377374.750
  23716204.250
 22  4 20 12 20  4.0000000  0 07G03G04G08G09G16G26G27 -10.78,0.0,0.00
  21247919.750
  20280741.250
  22729361.750
  21621375.250
  21034392.750
  23730116.250
  22200834.750
 22  4 20 12 40  8.0000000  0 05G04G07G09G16G27 -10.86,0.0,0.00
  17993275.250
  20726819.750
  18953373.250
  19535485.250
  19760013.750
 22  4 20 13  0  4.0000000  0 07G03G04G07G08G09G16G27 -10.94,0.0,0.00
  23976307.750
  21481377.750
  17989136.250
  22980411.750
  22017065.250
  23790392.750
  23126160.250
 22  4 20 13 20  4.0000000  0 06G04G07G08G09G27G30 -11.01,0.0,0.00
  21373718.750
  23513221.750
  22346888.750
  21448146.750
  22931616.750
  19199866.250
 22  4 20 13 40  6.0000000  0 08G03G04G07G08G09G14G27G30 -11.09,0.0,0.00
  18329472.750
  20678896.750
  22302875.250
  21122123.250
  20272852.250
  23944850.750
  22185161.750
  23858010.750
 22  4 20 14  0  4.0000000  0 07G04G07G08G09G14G27G30 -11.16,0.0,0.00
  23593898.250
  18554084.250
  23530493.750
  22712052.250
  19883622.750
  19083350.250
  19983136.750
 22  4 20 14 20  7.0000000  0 06G04G07G08G09G27G30 -11.24,0.0,0.00
  23707438.250
  23848287.250
  23179826.750
  22374066.250
  19198592.250
  19150947.750
 22  4 20 14 40  4.0000000  0 06G04G07G08G09G14G30 -11.32,0.0,0.00
  18706868.750
  23912969.750
  23775501.750
  22967442.750
  18883144.750
  19075952.750
 22  4 20 15  0  4.0000000  0 07G07G08G09G14G17G27G30 -11.39,0.0,0.00
  22187911.250
  22740001.250
  21919733.250
  23088978.250
  18813197.250
  19520868.250
  23190480.250
 22  4 20 15 20  4.0000000  0 08G01G07G08G09G14G21G28G30 -11.47,0.0,0.00
  18311957.250
  21244668.250
  22603245.750
  21766107.750
  22131966.250
  23920793.750
  23218482.750
  22068479.250
 22  4 20 15 40  4.0000000  0 07G07G08G09G14G17G21G30 -11.54,0.0,0.00
  21475368.250
  23705393.250
  22850846.750
  22369792.250
  22993199.750
  18275472.250
  22092888.250
 22  4 20 16  0  4.0000000  0 08G01G07G09G14G17G21G28G30 -11.62,0.0,0.00
  20595052.250
  18213059.750
  20451735.750
  19100470.250
  19195924.750
  21180881.250
  19988650.250
  18593892.750
 22  4 20 16 20  4.0000000  0 08G07G09G14G17G19G21G28G30 -11.70,0.0,0.00
  21341953.250
  18399429.250
  22172522.250
  21808677.750
  23845781.250
  18526143.250
  22975013.750
  21456202.250
 22  4 20 16 40  4.0000000  0 07G01G07G17G19G21G28G30 -11.77,0.0,0.00
  19987402.750
  18313658.750
  18284083.750
  20004180.250
  21727280.250
  19727687.750
  18136071.250
 22  4 20 17  0  4.0000000  0 08G01G07G13G14G17G19G28G30 -11.85,0.0,0.00
  18552526.750
  23198791.250
  18713049.250
  23646443.750
  22690330.250
  18040601.750
  18292043.250
  22713090.750
 22  4 20 17 20  4.0000000  0 09G01G13G14G15G17G19G21G28G30 -11.92,0.0,0.00
  19715380.250
  19573837.250
  18737846.750
  22108287.250
  23673749.750
  18612465.250
  22504353.250
  19291543.250
  23851062.750
 22  4 20 17 40 11.0000000  0 04G06G07G17G19 -12.000,0.0,0.00
  23418962.750
  21956929.250
  20520249.250
  21026432.750
 22  4 20 18  0  4.0000000  0 08G01G07G13G14G17G19G28G30 -0.08,0.0,0.00
  22022758.750
  21394807.750
  21233119.250
  20412416.750
  19498399.750
  19586246.750
  20736667.750
  20019874.750
 22  4 20 18 20  5.0000000  0 07G01G06G13G14G17G19G28 -0.16,0.0,0.00
  21781508.250
  19913689.250
  20656087.250
  19654638.250
  18939938.250
  18641188.250
  19823022.250
 22  4 20 18 40  4.0000000  0 08G02G06G07G14G17G19G28G30 -0.23,0.0,0.00
  19879888.750
  22986399.750
  19797027.250
  23453202.250
  22975461.250
  22337219.750
  23430524.250
  17999841.750
 22  4 20 19  0  4.0000000  0 09G02G11G13G14G15G17G19G24G28 -0.31,0.0,0.00
  23569949.250
  23915018.750
  23655878.250
  22094671.250
  19328840.250
  21854039.750
  20932375.250
  23938689.750
  21842404.750
 22  4 20 19 20  4.0000000  0 09G02G06G11G13G14G17G19G24G28 -0.39,0.0,0.00
  22812696.250
  20612481.250
  23084968.250
  18129255.250
  22277825.750
  22238083.750
  21093146.750
  23305775.750
  21758173.250
 22  4 20 19 40  4.0000000  0 07G02G06G11G14G17G19G28 -0.47,0.0,0.00
  23446496.750
  21710594.250
  23611765.750
  23826573.250
  23920388.750
  22611013.750
  23006357.750
 22  4 20 20  0  4.0000000  0 08G02G06G11G13G17G19G20G24 -0.54,0.0,0.00
  20171116.250
  18955461.750
  20201227.750
  23621764.750
  21561221.250
  20141242.750
  23059065.250
  20973610.250
 22  4 20 20 20  4.0000000  0 06G02G06G11G14G19G24 -0.62,0.0,0.00
  20796342.750
  20131815.750
  20672794.250
  22868620.250
  21459954.750
  21778881.250
 22  4 20 20 40  4.0000000  0 07G02G11G17G19G20G24G28 -0.70,0.0,0.00
  23028589.750
  22745345.750
  19767562.250
  18257909.750
  19119028.750
  18207696.750
  18047964.250
 22  4 20 21  0  4.0000000  0 06G02G11G14G20G24G28 -0.78,0.0,0.00
  21992917.750
  21557664.750
  19515503.750
  23477514.750
  23368113.750
  23387018.250
 22  4 20 21 20  4.0000000  0 09G02G06G11G12G17G19G20G24G28 -0.86,0.0,0.00
  23102060.250
  18026501.250
  22535450.250
  23735979.750
  20533337.750
  19054092.250
  23909952.750
  18684014.250
  18850558.750
 22  4 20 21 40  4.0000000  0 08G02G05G06G11G12G20G24G28 -0.93,0.0,0.00
  20599901.750
  22464410.750
  21962996.250
  19932986.750
  20544131.250
  20710242.750
  22376279.750
  22683327.750
 22  4 20 22  0  5.0000000  0 07G02G05G11G12G20G25G28 -1.01,0.0,0.00
  19170264.250
  20008529.250
  18440664.250
  18445616.750
  18616674.750
  20997747.250
  21596511.750
 22  4 20 22 20  5.0000000  0 08G02G05G06G11G12G20G25G28 -1.09,0.0,0.00
  18886087.250
  18710540.750
  20962608.750
  18134163.250
  23564828.750
  23749689.750
  19689396.750
  21668575.750
 22  4 20 22 40  5.0000000  0 06G02G11G12G20G24G25 -1.17,0.0,0.00
  20708772.250
  19973900.750
  18922196.750
  19122298.250
  22979673.250
  20539402.250
 22  4 20 23  0  4.0000000  0 06G02G05G11G12G20G25 -1.24,0.0,0.00
  22322808.250
  20392949.750
  21640783.250
  20224555.250
  20432482.750
  21286001.750
 22  4 20 23 20  4.0000000  0 07G02G05G11G12G20G25G29 -1.32,0.0,0.00
  20791607.250
  18216180.250
  20193062.750
  18557263.250
  18757099.250
  19035698.250
  21317743.250
 22  4 20 23 40  5.0000000  0 06G02G05G11G12G20G25 -1.40,0.0,0.00
  20063478.750
  23031841.750
  19572959.250
  23865889.750
  18039724.750
  23764730.750
 22  4 21  0  0  4.0000000  0 09G02G05G11G12G13G18G20G25G29 -1.48,0.0,0.00
  21584467.750
  18306349.750
  21219721.250
  19593508.250
  21801529.250
  21525137.250
  19708636.750
  18948307.250
  20302868.250
 22  4 21  0 20  4.0000000  0 09G02G05G11G12G13G15G20G25G29 -1.56,0.0,0.00
  18237858.250
  20894790.250
  18010439.250
  22578915.750
  23634411.750
  23351618.250
  22616629.250
  21450058.750
  22100676.250
 22  4 21  0 40  4.0000000  0 09G02G05G11G12G13G15G20G25G29 -1.63,0.0,0.00
  20731384.750
  23491971.250
  20646489.750
  19508894.250
  19399454.250
  18859709.250
  19451848.750
  23971776.250
  23805410.250
 22  4 21  1  0  4.0000000  0 09G02G05G11G13G15G20G23G25G29 -1.71,0.0,0.00
  18943526.750
  21935930.750
  19000432.250
  22988245.250
  22155044.250
  18046055.250
  23315312.750
  22354977.750
  21311885.750
 22  4 21  1 20  4.0000000  0 09G02G05G13G15G18G20G23G25G29 -1.79,0.0,0.00
  22213998.750
  19528527.250
  19779219.750
  18623105.750
  19695703.750
  21709251.750
  19735892.250
  19900836.750
  23978695.750
 22  4 21  1 40  4.0000000  0 06G05G10G18G23G25G29 -1.87,0.0,0.00
  23852601.250
  19553184.250
  23086445.750
  22942150.750
  18191581.250
  21460016.250
 22  4 21  2  0  4.0000000  0 06G13G15G18G23G26G29 -1.94,0.0,0.00
  20955788.750
  19117009.250
  20236019.750
  20011511.250
  22672170.250
  18838427.250
 22  4 21  2 20  9.0000000  0 07G05G10G13G15G18G23G29 -2.02,0.0,0.00
  20783678.250
  20048694.250
  19405850.750
  23235073.250
  18122766.750
  23913958.750
  23106256.250
 22  4 21  2 40  7.0000000  0 04G13G15G18G29 -2.10,0.0,0.00
  18496589.250
  22031154.250
  22508345.750
  22028287.750
 22  4 21  3  0  7.0000000  0 05G10G15G18G23G29 -2.18,0.0,0.00
  21009887.250
  19454089.750
  19373183.250
  19432801.750
  19556116.250
 22  4 21  3 20  8.0000000  0 06G10G15G16G18G23G26 -2.26,0.0,0.00
  18688271.250
  23895238.750
  21309560.750
  23142593.250
  23389750.750
  21161174.250
 22  4 21  3 40  4.0000000  0 07G10G15G18G23G24G27G29 -2.33,0.0,0.00
  21794422.250
  21838054.250
  20352616.250
  20776778.250
  22564660.750
  23402012.750
  22097507.250
 22  4 21  4  0  4.0000000  0 07G10G15G18G23G24G27G32 -2.41,0.0,0.00
  20131229.250
  21057305.250
  18826520.250
  19383654.250
  20765295.750
  21318833.250
  20626785.250
 22  4 21  4 20  4.0000000  0 06G18G22G23G24G29G32 -2.49,0.0,0.00
  21979424.250
  18425319.750
  22593501.250
  23674048.250
  19277023.250
  23083550.750
 22  4 21  4 40  7.0000000  0 06G10G18G22G23G27G32 -2.57,0.0,0.00
  20459540.250
  19661972.750
  21230862.250
  20233375.250
  21128605.750
  20063028.750
 22  4 21  5  0  4.0000000  0 08G08G10G18G22G23G24G27G32 -2.64,0.0,0.00
  21470938.750
  18563028.750
  18176422.250
  18847004.250
  18593770.750
  19500381.750
  19186446.250
  23874320.750
 22  4 21  5 20  5.0000000  0 08G08G10G18G22G23G27G31G32 -2.72,0.0,0.00
  18606954.250
  21990987.250
  22133317.750
  21888786.250
  22283815.250
  22721936.750
  18963156.250
  21139823.750
 22  4 21  5 40 10.0000000  0 09G08G10G18G22G23G24G27G31G32 -2.800,0.0,0.00
  22690114.250
  20244329.750
  21026934.250
  19867755.750
  20808823.250
  22140866.250
  21225569.750
  22450965.250
  19346591.750
 22  4 21  6  0  4.0000000  0 07G08G10G22G23G27G31G32 -2.90,0.0,0.00
  20776264.750
  18366459.750
  23821799.750
  19211972.250
  19710020.250
  19800739.750
  23522401.750
 22  4 21  6 20 11.0000000  0 09G08G10G18G21G22G23G24G31G32 -3.000,0.0,0.00
  18218648.250
  21727099.250
  18027031.250
  24234628.250
  21114320.750
  22868921.750
  19049267.750
  22391667.250
  21024683.750
 22  4 21  6 40  4.0000000  0 06G08G10G21G22G23G32 -3.05,0.0,0.00
  21741812.250
  19093579.250
  20995301.250
  18475548.250
  20538314.250
  18572523.750
 22  4 21  7  0  6.0000000  0 07G08G10G21G22G23G31G32 -3.10,0.0,0.00
  20571868.750
  23713041.250
  19029655.750
  23122604.250
  19471135.250
  22977983.750
  23383067.750
 22  4 21  7 20  5.0000000  0 06G08G10G21G22G27G31 -3.15,0.0,0.00
  18810197.250
  21746671.750
  22499962.750
  21180255.250
  18814110.750
  20415422.250
 22  4 21  7 40  4.0000000  0 06G01G10G21G22G31G32 -3.20,0.0,0.00
  21780806.750
  20725407.750
  20953093.750
  20144138.250
  18884261.750
  20660465.250
 22  4 21  8  0  4.0000000  0 07G01G10G22G25G26G31G32 -3.25,0.0,0.00
  19383099.750
  19155696.250
  18490957.750
  20777383.250
  20394333.250
  22889368.750
  19107963.750
 22  4 21  8 20  4.0000000  0 07G01G03G10G21G22G26G31 -3.30,0.0,0.00
  22965220.750
  19426894.750
  23519908.250
  22803036.250
  22680668.750
  23699018.750
  20919781.250
 22  4 21  8 40  4.0000000  0 07G10G21G22G25G26G31G32 -3.35,0.0,0.00
  21062226.750
  19922388.250
  19947111.250
  22113520.750
  20109870.250
  18194495.250
  20741389.750
 22  4 21  9  0 10.0000000  0 09G01G03G04G10G21G22G26G31G32 -3.400,0.0,0.00
  19772310.250
  21025115.250
  22174516.750
  21689153.750
  20150880.250
  20196159.250
  19572802.250
  18606397.250
  21080256.250
 22  4 21  9 20  4.0000000  0 07G03G16G21G22G26G31G32 -0.60,0.0,0.00
  22373956.750
  22961992.250
  22505071.250
  22464395.250
  21172169.750
  21158994.250
  23445213.750
 22  4 21  9 40  4.0000000  0 08G01G03G04G16G21G22G31G32 -1.20,0.0,0.00
  20416230.750
  19918755.750
  21593959.750
  20405046.250
  21082251.250
  20878677.250
  19944745.750
  21968120.250
 22  4 21 10  0  5.0000000  0 06G01G03G04G22G26G31 -1.80,0.0,0.00
  18254143.250
  22792967.750
  18618338.750
  18548541.750
  22345043.750
  18032167.250
 22  4 21 10 20  4.0000000  0 07G01G03G04G16G22G26G31 -2.40,0.0,0.00
  22394780.250
  20011358.250
  21853786.750
  20253584.250
  22453236.750
  20039764.750
  22359640.750
 22  4 21 10 40  7.0000000  0 09G01G03G04G09G16G21G22G26G31 -3.00,0.0,0.00
  21327646.250
  18112142.750
  19824393.750
  22300420.250
  18231378.250
  21893236.750
  21130210.750
  18651565.750
  21430238.750
 22  4 21 11  0 11.0000000  0 09G01G03G07G09G16G21G22G26G31 -3.600,0.0,0.00
  18914989.750
  21019166.750
  19385412.250
  18757076.750
  21027013.250
  25324136.750
  18491947.250
  22069582.750
  19124239.750
 22  4 21 11 20  4.0000000  0 06G03G04G07G09G16G26 -0.08,0.0,0.00
  19353656.750
  20312641.250
  23237562.750
  22437175.250
  19269633.250
  20877576.250
 22  4 21 11 40  7.0000000  0 05G04G09G16G26G27 -0.15,0.0,0.00
  23854800.750
  19745181.250
  23348145.250
  19445644.750
  20096405.250
 22  4 21 12  0  5.0000000  0 07G03G04G08G09G16G26G27 -0.23,0.0,0.00
  21775197.250
  21415295.750
  18181425.750
  23015371.250
  21577783.250
  18053912.750
  23472148.750