     2.00           OBSERVATION DATA    G(GPS)              RINEX VERSION / TYPE
goGPS-java                              04-May-22 01:45:57  PGM / RUN BY / DATE
                                                            MARKER NAME
                                                            MARKER NUMBER
                    Lotek Wireless Inc.                     OBSERVER / AGENCY
7                                                           REC # / TYPE / VERS
                                                            ANT # / TYPE
 -1701871.0000 -5580152.0000  2569378.0000                  APPROX POSITION XYZ
        0.0000        0.0000        0.0000                  ANTENNA: DELTA H / E / N
     2     0                                                WAVELENGTH FACT L1/2
     1    C1                                                # / TYPES OF OBSERV
  2022     4    29    21    17   56.0000000     UTC         TIME OF FIRST OBS
                                                            END OF HEADER
 22  4 30  1  0  6.0000000  0 08G02G05G11G12G13G15G20G23 10.86,0.0,0.00
  22145443.250
  19712512.250
  22460928.250
  22282404.750
  19434942.750
  18026311.750
  21965747.250
  19091029.750
 22  5  2 12  0 11.0000000  0 06G03G04G08G09G16G27 -116.00000,0.0,0.00
  21361335.250
  19308924.750
  21136478.750
  20084529.250
  21156415.750
  21025342.250
 22  5  2 12 20  4.0000000  0 07G03G04G07G08G09G27G30 -0.36,0.0,0.00
  18931207.250
  22104496.750
  18455763.250
  23363309.750
  22400628.250
  23700132.250
  20255012.250
 22  5  2 12 40  6.0000000  0 07G03G04G07G08G09G14G30 -0.43,0.0,0.00
  23714286.250
  23306318.250
  22218337.750
  21025536.250
  20135317.250
  18057100.750
  23886694.750
 22  5  2 13  0  8.0000000  0 07G04G07G08G09G14G16G27 -0.49,0.0,0.00
  18293927.250
  19612464.250
  18477113.750
  23639733.750
  21089805.250
  22110817.750
  19776450.250
 22  5  2 13 20  9.0000000  0 08G04G07G08G09G14G20G27G30 -0.55,0.0,0.00
  23110673.250
  23687049.250
  22793007.750
  21998774.250
  18896734.750
  20923750.250
  18585225.750
  19101543.250
 22  5  2 13 40  8.0000000  0 07G04G07G08G09G14G27G30 -0.62,0.0,0.00
  21747396.250
  21449009.250
  20983780.250
  20211337.250
  22471857.750
  23224592.250
  22722929.250
 22  5  2 14  0  6.0000000  0 08G01G04G09G14G21G27G28G30 -0.68,0.0,0.00
  23467787.250
  21253650.250
  19349700.750
  20899923.250
  22561781.250
  22747680.250
  22172113.750
  21102390.750
 22  5  2 14 20  9.0000000  0 06G04G08G09G17G21G28 -0.74,0.0,0.00
  18648655.250
  23206698.250
  22440841.250
  18634104.250
  18945963.750
  18369429.250
 22  5  2 14 40  4.0000000  0 06G01G09G14G17G21G28 -0.80,0.0,0.00
  21663039.250
  19688714.750
  19630184.250
  20501754.750
  21445364.750
  20675574.750
 22  5  2 15  0  4.0000000  0 08G07G08G13G14G17G21G28G30 -0.87,0.0,0.00
  23346757.750
  19946432.250
  21029579.750
  18243068.750
  18570493.750
  20191279.750
  19187288.750
  23880418.250
 22  5  2 15 20  5.0000000  0 08G01G07G08G13G14G21G28G30 -0.93,0.0,0.00
  18546415.250
  22323996.250
  19785068.750
  19395108.750
  23191229.750
  19355602.750
  18047971.250
  22600088.750
 22  5  2 15 40  4.0000000  0 09G01G07G13G14G17G19G21G28G30 -0.99,0.0,0.00
  18388068.750
  22522455.250
  18975116.250
  23299440.750
  22723344.250
  18671978.750
  19773547.250
  18072241.250
  22512170.750
 22  5  2 16  0  4.0000000  0 08G01G07G13G14G17G21G28G30 -1.06,0.0,0.00
  20181254.750
  18659969.250
  20492628.750
  19252285.250
  18382155.250
  22137912.250
  19940150.250
  18340550.250
 22  5  2 16 20 10.0000000  0 07G01G06G07G17G19G21G30 -1.120,0.0,0.00
  22228948.750
  18426220.250
  21018247.750
  20274222.250
  21457584.250
  18720294.750
  20376470.750
 22  5  2 16 40  9.0000000  0 06G06G07G14G17G19G30 -1.18,0.0,0.00
  19345309.250
  23151354.750
  23026054.750
  21954015.250
  22705738.750
  22192461.750
 22  5  2 17  0  5.0000000  0 07G01G06G07G14G17G19G30 -1.25,0.0,0.00
  21284703.250
  21406190.250
  20559090.250
  19906586.750
  18913485.250
  19231330.750
  19302378.250
 22  5  2 17 20  4.0000000  0 07G06G13G14G15G17G19G28 -1.31,0.0,0.00
  22272330.750
  22463668.250
  21578126.250
  18620849.750
  20754557.250
  20657505.250
  21834001.250
 22  5  2 17 40  4.0000000  0 09G02G06G07G11G13G17G19G28G30 -1.37,0.0,0.00
  18446901.250
  21447348.250
  23471139.250
  18789002.750
  22624912.250
  20920791.750
  20447859.250
  21601203.250
  21727611.750
 22  5  2 18  0  4.0000000  0 08G01G06G14G17G19G24G28G30 -1.43,0.0,0.00
  19725460.750
  21942141.250
  22709748.250
  22359137.750
  21563150.750
  19020031.250
  22583692.750
  23453559.250
 22  5  2 18 20  4.0000000  0 07G02G06G11G14G17G19G28 -1.50,0.0,0.00
  18046439.250
  21630018.750
  18321740.250
  23007949.250
  22885567.250
  21826494.750
  22633624.250
 22  5  2 18 40  7.0000000  0 09G02G06G11G13G14G17G19G28G30 -1.56,0.0,0.00
  23971954.750
  21980563.250
  18165275.250
  19828207.750
  23871649.750
  20927764.250
  22664265.250
  23212016.250
  19751895.250
 22  5  2 19  0  6.0000000  0 07G02G06G11G14G17G19G28 -1.62,0.0,0.00
  19397912.750
  23889134.750
  19470600.750
  20195360.250
  20345503.250
  18940272.250
  19221709.250
 22  5  2 19 20  4.0000000  0 08G02G06G11G12G14G19G20G24 -1.69,0.0,0.00
  20657017.750
  19683433.750
  20590405.250
  23103200.750
  22303256.250
  20953462.750
  23388755.750
  21549349.250
 22  5  2 19 40  4.0000000  0 07G02G06G11G12G19G20G24 -1.75,0.0,0.00
  21859330.250
  21436618.250
  21641092.750
  23936351.250
  22788388.750
  18197963.750
  22936197.250
 22  5  2 20  0  4.0000000  0 09G02G06G11G12G14G17G19G20G28 -1.81,0.0,0.00
  22281048.750
  22402133.250
  21912065.250
  23851442.750
  19448876.750
  19271179.250
  23706867.250
  18080874.750
  23475029.250
 22  5  2 20 20  4.0000000  0 08G02G05G06G11G14G20G24G28 -1.88,0.0,0.00
  21920433.250
  19267217.750
  22555867.750
  21414709.250
  19746533.250
  23076164.750
  23392455.250
  23475635.250
 22  5  2 20 40  6.0000000  0 08G02G05G06G11G12G19G20G24 -1.94,0.0,0.00
  18894866.750
  21315092.250
  19999990.750
  18278134.250
  19179732.750
  20928028.750
  19361262.250
  20566742.750
 22  5  2 21  0  4.0000000  0 07G02G06G11G12G19G20G25 -2.00,0.0,0.00
  18463807.750
  19981973.750
  23766374.750
  18069311.750
  20647480.750
  18249540.250
  20853096.250
 22  5  2 21 20  6.0000000  0 07G02G05G11G12G20G24G25 -2.07,0.0,0.00
  21409288.750
  21792151.750
  20677952.750
  20381354.250
  20571936.750
  23452178.250
  22766507.250
 22  5  2 21 40  4.0000000  0 07G02G06G11G12G20G25G29 -2.13,0.0,0.00
  22694026.250
  18875317.250
  21964031.250
  21134263.250
  21340219.250
  23043623.750
  19529570.750
 22  5  2 22  0  4.0000000  0 07G02G05G06G11G12G19G20 -2.19,0.0,0.00
  18804121.750
  23299318.250
  21233453.750
  18112560.750
  22848530.750
  21204287.750
  23067249.750
 22  5  2 22 20  5.0000000  0 06G02G05G11G12G20G29 -2.25,0.0,0.00
  19277958.750
  23026818.250
  18657622.750
  23098984.750
  23318657.250
  20320772.750
 22  5  2 22 40  4.0000000  0 07G02G12G15G18G20G25G29 -2.32,0.0,0.00
  21825448.750
  19604811.250
  23609078.250
  22906948.750
  19806573.250
  19794211.750
  21949518.750
 22  5  2 23  0  4.0000000  0 06G02G05G12G18G25G29 -2.38,0.0,0.00
  18878771.250
  21699203.250
  22778973.250
  19184708.250
  22392184.250
  18093122.250
 22  5  2 23 20  4.0000000  0 07G02G05G11G18G20G25G29 -2.44,0.0,0.00
  19411632.750
  22065783.250
  19141935.250
  19010457.250
  23680092.250
  22671950.750
  23742524.250
 22  5  2 23 40  4.0000000  0 07G02G05G12G18G23G25G29 -2.51,0.0,0.00
  18415717.250
  21083984.750
  22979422.250
  23361688.250
  18312339.250
  21610640.750
  21917934.250
 22  5  3  0  0  4.0000000  0 06G02G05G18G23G25G29 -2.57,0.0,0.00
  21549913.250
  18386067.250
  19895750.250
  20443107.750
  18846097.250
  18299251.750
 22  5  3  0 20  4.0000000  0 07G02G13G15G18G23G25G29 -2.63,0.0,0.00
  19362954.750
  23160658.750
  22197842.750
  23128513.250
  23343128.750
  22877366.750
  21443402.750
 22  5  3  0 40  4.0000000  0 08G02G05G11G12G13G15G20G29 -2.70,0.0,0.00
  22163416.250
  19615331.750
  22451110.250
  22174700.750
  19547582.750
  18244845.250
  21886126.750
  23687847.750
 22  5  3  1  0  6.0000000  0 09G02G05G10G13G15G18G25G26G29 -2.76,0.0,0.00
  19277381.250
  23091347.750
  18236352.750
  22389177.250
  20734138.750
  21898520.750
  23423331.250
  18264766.250
  20367678.750
 22  5  3  1 20  4.0000000  0 06G02G10G13G15G23G29 -2.82,0.0,0.00
  22590613.750
  20682198.250
  19583789.750
  23578878.750
  18413221.250
  23377852.750
 22  5  3  1 40  4.0000000  0 07G10G13G15G18G23G26G29 -2.88,0.0,0.00
  23162544.250
  22895680.250
  20571565.250
  21308273.750
  21154660.250
  18205966.750
  20513573.750
 22  5  3  2  0  7.0000000  0 08G10G13G15G18G23G24G26G29 -2.95,0.0,0.00
  19894154.250
  20530207.750
  23916041.250
  18187897.250
  18162756.250
  21133217.750
  21492993.750
  23978857.250
 22  5  3  2 20  8.0000000  0 07G10G15G18G23G24G29G32 -3.01,0.0,0.00
  22596683.750
  21336251.250
  20999295.250
  21146544.750
  23658609.750
  21499256.750
  18461305.750
 22  5  3  2 40  8.0000000  0 06G10G16G18G23G24G29 -3.07,0.0,0.00
  20187101.250
  22976107.250
  18686699.750
  19015948.750
  21050510.250
  19966187.250
 22  5  3  3  0  9.0000000  0 07G10G15G16G18G23G24G29 -3.14,0.0,0.00
  23144175.250
  23533031.250
  20366285.750
  21760767.250
  22245892.250
  23836213.250
  23846288.750
 22  5  3  3 20 11.0000000  0 07G10G18G23G24G27G29G32 -3.200,0.0,0.00
  21659725.750
  20445865.250
  21026716.750
  22254988.250
  22669066.750
  23310199.250
  21879249.750
 22  5  3  3 40 10.0000000  0 04G10G23G29G32 -3.200,0.0,0.00
  21402004.250
  21027457.250
  18005382.250
  21174457.250
 22  5  3  4  0 10.0000000  0 04G10G18G22G32 -3.400,0.0,0.00
  21024381.750
  20414081.750
  21552915.750
  20450286.250
 22  5  3  4 20  7.0000000  0 01G10 -3.10,0.0,0.00
  21573089.750
 22  5  3  4 40 11.0000000  0 03G10G18G23 -2.800,0.0,0.00
  20638454.250
  21081544.250
  21038189.750
 22  5  3  5  0 11.0000000  0 03G10G23G27 -2.90,0.0,0.00
  19714730.250
  20389317.750
  20847817.750
 22  5  3  5 20 11.0000000  0 03G10G23G27 -3.000,0.0,0.00
  21035993.750
  21997915.250
  22575224.250
 22  5  3  5 40  7.0000000  0 02G10G32 -3.30,0.0,0.00
  20803546.250
  20188643.750
 22  5  3  6  0 11.0000000  0 04G10G27G31G32 -3.600,0.0,0.00
  21027132.250
  23490806.250
  20665820.750
  20609333.750
 22  5  3  6 20  8.0000000  0 01G23 -3.55,0.0,0.00
  23575663.250
 22  5  3  6 40  8.0000000  0 02G10G32 -3.50,0.0,0.00
  19130351.750
  19042305.750
 22  5  3  7  0  7.0000000  0 02G10G22 -3.45,0.0,0.00
  22657249.250
  22049066.250
 22  5  3  7 20 11.0000000  0 04G10G22G31G32 -3.400,0.0,0.00
  21034926.250
  20302376.250
  18607096.750
  20990194.750
 22  5  3  7 40 11.0000000  0 04G10G22G31G32 -3.400,0.0,0.00
  22007704.750
  21053897.250
  19270680.250
  21832506.750
 22  5  3  8  0 11.0000000  0 02G21G31 -3.44,0.0,0.00
  20266607.250
  18592810.750
 22  5  3  8 20  7.0000000  0 02G22G31 -3.48,0.0,0.00
  23704740.750
  22217449.750
 22  5  3  8 40  8.0000000  0 02G22G31 -3.52,0.0,0.00
  21137894.250
  19977593.750
 22  5  3  9  0  8.0000000  0 04G03G22G26G31 -3.56,0.0,0.00
  23336390.750
  18673795.250
  22651675.750
  23904634.750
 22  5  3  9 20  6.0000000  0 00 -3.60,0.0,0.00
 22  5  3  9 40  8.0000000  0 02G16G26 -3.64,0.0,0.00
  23143829.250
  23200860.250
 22  5  3 10  0  8.0000000  0 02G22G26 -3.68,0.0,0.00
  23178596.250
  20697883.750
 22  5  3 10 20  8.0000000  0 02G04G26 -3.72,0.0,0.00
  18410749.750
  18437355.250
 22  5  3 10 40  8.0000000  0 02G04G26 -3.76,0.0,0.00
  21255378.750
  22256497.250
 22  5  3 11  0 11.0000000  0 03G03G16G27 -3.800,0.0,0.00
  21236643.250
  21055991.750
  23408960.750
 22  5  3 11 20  8.0000000  0 02G04G16 -3.89,0.0,0.00
  21094038.750
  21611593.250
 22  5  3 11 40  8.0000000  0 01G16 -3.99,0.0,0.00
  19398253.750
 22  5  3 12  0 11.0000000  0 04G04G09G16G27 -4.08,0.0,0.00
  19390349.750
  20039430.750
  21465219.250
  21065804.250